{"directory":[{"business_name":"Absolute Tire and Wheel","category":"Automotive","category_yelp":"auto","address":"220 W Broadway Ave","city":"Minneapolis","state":"Minnesota","zip":"55411","phone":"612.522.8473","geo_longitude":"-93.2814764","geo_latitude":"44.9993674","geo_accuracy":"house","website":"absolutetireandwheel.com","website_status":"absolutetireandwheel.com","status":"valid","wbc_member":true,"business_status_determined_by":"Website","yelp_id":"absolute-tire-and-wheel-minneapolis-2","yelp_url":"http://www.yelp.com/biz/absolute-tire-and-wheel-minneapolis-2","yelp_neighborhood":"Near North","yelp_categories":"Tires","yelp_status":"match","yelp_lat":"44.9993674","yelp_long":"-93.2814764","full_address":"220 West Broadway Avenue, Minneapolis, MN 55411, USA","neighborhood":"Hawthorne","google_place_id":"29db6bbe8ca3543f0a217385bcc33432ed79a454","google_place_img":"https://lh5.googleusercontent.com/-ZGV1qrq36I4/UAzkawChfQI/AAAAAABKsYg/6eW7wf2LyR4/s1600-w400/Absolute%2BTire%2Band%2BWheel","google_place_url":"https://plus.google.com/107269544956280544053/about?hl=en-US"},{"business_name":"Long Moune Auto Sales","category":"Automotive","category_yelp":"auto","address":"1821 W Broadway Ave","city":"Minneapolis","state":"Minnesota","zip":"55411","phone":"612.325.8008","geo_longitude":"-93.3040767","geo_latitude":"44.9998877","geo_accuracy":"house","website_status":"no_website","status":"valid","business_status_determined_by":"Call","yelp_status":"no_results","yelp_lat":"44.9998876792256","yelp_long":"-93.3040523529053","full_address":"1821 West Broadway Avenue, Minneapolis, MN 55411, USA","neighborhood":"Willard-Hay","google_place_id":"1724a4a14613b5228e57cbb977d572c0b9de1bd6","google_place_img":"http://maps.gstatic.com/mapfiles/place_api/icons/car_dealer-71.png","google_place_url":"https://plus.google.com/101386157694379645186/about?hl=en-US"},{"business_name":"Rusty's Tire & Automotive Center","category":"Automotive","category_yelp":"auto","address":"2401 W Broadway Ave","city":"Minneapolis","state":"Minnesota","zip":"55411","phone":"612.588.7630","geo_longitude":"-93.3109274","geo_latitude":"45.0054383","geo_accuracy":"house","website_status":"On Facebook","status":"valid","business_status_determined_by":"Call","yelp_status":"no_results","yelp_lat":"45.0054103468256","yelp_long":"-93.3109188079834","full_address":"2401 West Broadway Avenue, Minneapolis, MN 55411, USA","neighborhood":"Willard-Hay","google_place_id":"2db835f69a3149a08cd81001f236f728386f3e92","google_place_img":"https://lh4.googleusercontent.com/-cUeKF6iyTf4/UP-wlp7as6I/AAAAAAB6bJM/rTV_8L4kG3Q/s1600-w400/PJW%2BAutomotive%2BInc","google_place_url":"https://plus.google.com/108247074677321454952/about?hl=en-US"},{"business_name":"Penn Electric Motor Service","category":"Automotive","category_yelp":"auto","address":"2515 W Broadway Ave","city":"Minneapolis","state":"Minnesota","zip":"55411","phone":"612.588.5333","geo_longitude":"-93.3128415","geo_latitude":"45.0068543","geo_accuracy":"house","website_status":"no_website","status":"valid","business_status_determined_by":"Call","yelp_status":"no_results","yelp_lat":"45.0068667858263","yelp_long":"-93.3128070831299","full_address":"2515 West Broadway Avenue, Minneapolis, MN 55411, USA","neighborhood":"Willard-Hay","google_place_id":"a4c2c07e175849b626d64da94f2f4be756d5af52","google_place_img":"http://maps.gstatic.com/mapfiles/place_api/icons/generic_business-71.png","google_place_url":"https://plus.google.com/109457990882847532660/about?hl=en-US"},{"business_name":"Monte's","category":"Automotive","category_yelp":"auto","address":"2420 W Broadway Ave","city":"Minneapolis","state":"Minnesota","zip":"55411","geo_longitude":"-93.310834","geo_latitude":"45.00585","geo_accuracy":"house","website_status":"no_website","status":"valid","business_status_determined_by":"Call","yelp_status":"no_match","full_address":"2420 West Broadway Avenue, Minneapolis, MN 55411, USA","neighborhood":"Jordan","google_place_id":"76b2e86f6604f1ab1d33957c29e5ce8438e8af0e","google_place_img":"http://maps.gstatic.com/mapfiles/place_api/icons/generic_business-71.png","google_place_url":"https://plus.google.com/115453160588040558270/about?hl=en-US"},{"business_name":"O'Reilly Auto Parts","category":"Automotive","category_yelp":"auto","address":"1625 W Broadway Ave","city":"Minneapolis","state":"Minnesota","zip":"55411","phone":"612.522.4046","geo_longitude":"-93.301388","geo_latitude":"44.999213","geo_accuracy":"house","website_status":"no_website","status":"valid","business_status_determined_by":"Visit","yelp_status":"no_match","full_address":"1625 West Broadway Avenue, Minneapolis, MN 55411, USA","neighborhood":"Willard-Hay","google_place_id":"d313498d87b8e1eaf756b13829565d45e21a6d7d","google_place_img":"http://maps.gstatic.com/mapfiles/place_api/icons/generic_business-71.png","google_place_url":"https://plus.google.com/114615179651329325566/about?hl=en-US"},{"business_name":"Rising Star Auto Sales","category":"Automotive","category_yelp":"auto","address":"2501 W Broadway Ave","city":"Minneapolis","state":"Minnesota","zip":"55411","phone":"612.287.0456","geo_longitude":"-93.3122731","geo_latitude":"45.0063511","geo_accuracy":"house","website":"risingstarautosales.com","website_status":"risingstarautosales.com","status":"valid","business_status_determined_by":"Website Works","yelp_status":"no_match","full_address":"2501 West Broadway Avenue, Minneapolis, MN 55411, USA","neighborhood":"Willard-Hay","google_place_id":"dda0cc2ef22d9dbfdd0c3a2652e71cc4225d14ed","google_place_img":"http://maps.gstatic.com/mapfiles/place_api/icons/car_dealer-71.png","google_place_url":"https://plus.google.com/104562700795456510047/about?hl=en-US"},{"business_name":"Western Motors","category":"Automotive","category_yelp":"auto","address":"2011 W Broadway Ave","city":"Minneapolis","state":"Minnesota","zip":"55411","phone":"612.529.8833","geo_longitude":"-93.30587","geo_latitude":"45.001639","geo_accuracy":"house","website_status":"no_website","status":"valid","business_status_determined_by":"Call","yelp_status":"no_match","full_address":"2011 West Broadway Avenue, Minneapolis, MN 55411, USA","google_place_id":"5ff45e40f0098b1b2bac775535beb657b344c28d","google_place_img":"http://maps.gstatic.com/mapfiles/place_api/icons/car_dealer-71.png","google_place_url":"https://plus.google.com/103153118702386856793/about?hl=en-US"},{"business_name":"Doc's Auto Salvage","category":"Automotive","category_yelp":"auto","address":"1321 James Ave N","city":"Minneapolis","state":"Minnesota","zip":"55411","phone":"612-267-0608","geo_longitude":"-93.301042","geo_latitude":"44.9922759","geo_accuracy":"house","website_status":"no_website","status":"valid","business_status_determined_by":"Call- New Number added","yelp_status":"no_results","yelp_lat":"44.9923007294642","yelp_long":"-93.3010482788086","full_address":"1321 James Avenue North, Minneapolis, MN 55411, USA","neighborhood":"Near North","google_place_id":"no_match"},{"business_name":"Further Performance","category":"Automotive","category_yelp":"auto","address":"207 Humboldt Ave N","city":"Minneapolis","state":"Minnesota","zip":"55405","phone":"612.374.2604","geo_longitude":"-93.2985406","geo_latitude":"44.9781499","geo_accuracy":"house","website":"furtherperformance.com","website_status":"furtherperformance.com","status":"valid","business_status_determined_by":"Website","yelp_id":"further-performance-minneapolis","yelp_url":"http://www.yelp.com/biz/further-performance-minneapolis","yelp_status":"match","yelp_lat":"44.9781499","yelp_long":"-93.2985406","full_address":"207 Humboldt Avenue North, Minneapolis, MN 55405, USA","neighborhood":"Harrison","google_place_id":"b555418e96ac4d73c8113b76456eb06fc8d646e1","google_place_img":"https://lh5.googleusercontent.com/-oZ33pt-HJU8/UMBMYFVMBNI/AAAAAAAAAEo/qIMgOW3eK0I/s1600-w400/470542_10151720542835506_450781946_o.jpg","google_place_url":"https://plus.google.com/102107701324109214235/about?hl=en-US"},{"business_name":"Jobbers Warehouse Supply Inc.","category":"Automotive","category_yelp":"auto","address":"800 3rd Ave N","city":"Minneapolis","state":"Minnesota","zip":"55405","phone":"612.377.4520","geo_longitude":"-93.289934","geo_latitude":"44.9812129","geo_accuracy":"house","website":"enginepartspro.com","website_status":"enginepartspro.com","status":"valid","business_status_determined_by":"Website","yelp_status":"no_results","yelp_lat":"44.9812129","yelp_long":"-93.289934","full_address":"800 3rd Avenue North, Minneapolis, MN 55405, USA","neighborhood":"Summer-Glenwood","google_place_id":"a57f0b7d410c46757652dc4b45e57fb6af000d5b","google_place_img":"http://maps.gstatic.com/mapfiles/place_api/icons/generic_business-71.png","google_place_url":"https://plus.google.com/101783319365937087411/about?hl=en-US"},{"business_name":"Crankshaft Supply Co.","category":"Automotive","category_yelp":"auto","address":"2726 Washington Ave N","city":"Minneapolis","state":"Minnesota","zip":"55411","phone":"612.521.2235","geo_longitude":"-93.281383","geo_latitude":"45.008011","geo_accuracy":"house","website":"crankshaftsupply.com","website_status":"crankshaftsupply.com","status":"valid","business_status_determined_by":"Website","yelp_status":"no_results","yelp_lat":"45.0080197737734","yelp_long":"-93.2813930511475","full_address":"2726 Washington Avenue North, Minneapolis, MN 55411, USA","neighborhood":"Hawthorne","google_place_id":"9c28b898bf9a7866bd10b8b6e769b92e2297e5c0","google_place_img":"http://maps.gstatic.com/mapfiles/place_api/icons/generic_business-71.png","google_place_url":"https://plus.google.com/118430898082238493942/about?hl=en-US"},{"business_name":"B&M Service Inc.","category":"Automotive","category_yelp":"auto","address":"1501 Washington Ave N","city":"Minneapolis","state":"Minnesota","zip":"55411","phone":"612.521.3990","geo_longitude":"-93.2817363","geo_latitude":"44.994311","geo_accuracy":"house","website_status":"no_website","status":"valid","business_status_determined_by":"Call","yelp_status":"no_match","full_address":"1501 Washington Avenue North, Minneapolis, MN 55411, USA","neighborhood":"Near North","google_place_id":"6e47bc931d82a8239c766689ef6898a5ca44f00a","google_place_img":"http://maps.gstatic.com/mapfiles/place_api/icons/generic_business-71.png","google_place_url":"https://plus.google.com/113484297911829798235/about?hl=en-US"},{"business_name":"Northwestern Tire Co","category":"Automotive","category_yelp":"auto","address":"1200 Glenwood Ave N","city":"Minneapolis","state":"Minnesota","zip":"55405","phone":"612.377.4900","geo_longitude":"-93.2955355","geo_latitude":"44.9804598","geo_accuracy":"house","website":"northwesterntire.net","website_status":"northwesterntire.net","status":"valid","business_status_determined_by":"Website","yelp_id":"northwestern-tire-co-inc-of-minneapolis-minneapolis","yelp_url":"http://www.yelp.com/biz/northwestern-tire-co-inc-of-minneapolis-minneapolis","yelp_status":"match","yelp_lat":"44.9804476","yelp_long":"-93.2955382","full_address":"1200 Glenwood Avenue, Minneapolis, MN 55405, USA","neighborhood":"Harrison","google_place_id":"07a7f2a3b71ae554d0d3b2c29a878620f0235d08","google_place_img":"http://maps.gstatic.com/mapfiles/place_api/icons/generic_business-71.png","google_place_url":"https://plus.google.com/101177344668386874350/about?hl=en-US"},{"business_name":"A Quality Glass Company","category":"Automotive","category_yelp":"auto","address":"815 21st Ave N","city":"Minneapolis","state":"Minnesota","zip":"55411","phone":"612.588.0199","geo_longitude":"-93.2897449","geo_latitude":"45.0002261","geo_accuracy":"house","website":"aqualityglassco.com","website_status":"aqualityglassco.com","status":"valid","business_status_determined_by":"Website","yelp_status":"no_results","yelp_lat":"45.0002261","yelp_long":"-93.2897449","full_address":"815 North 21st Avenue, Minneapolis, MN 55411, USA","neighborhood":"Hawthorne","google_place_id":"428d0fd7137bdb9306242b38ec3d9536b7fa9ee6","google_place_img":"http://maps.gstatic.com/mapfiles/place_api/icons/generic_business-71.png","google_place_url":"https://plus.google.com/116544210868727361069/about?hl=en-US"},{"business_name":"Vina Auto Body & Repair","category":"Automotive","category_yelp":"auto","address":"2526 Emerson Ave N","city":"Minneapolis","state":"Minnesota","zip":"55411","phone":"612.827.1494","geo_longitude":"-93.293657","geo_latitude":"45.005725","geo_accuracy":"house","website_status":"no_website","status":"valid","business_status_determined_by":"Call","yelp_status":"no_results","yelp_lat":"45.0057137746711","yelp_long":"-93.2936668395996","full_address":"2526 Emerson Avenue North, Minneapolis, MN 55411, USA","neighborhood":"Hawthorne","google_place_id":"2b1994ed608436177f83ed55cb72481704952fdd","google_place_img":"http://maps.gstatic.com/mapfiles/place_api/icons/generic_business-71.png","google_place_url":"https://plus.google.com/116212267786610841062/about?hl=en-US"},{"business_name":"Troy's Auto Repair","category":"Automotive","category_yelp":"auto","address":"1100 Lowry Ave N","city":"Minneapolis","state":"Minnesota","zip":"55411","phone":"612.588.1121","geo_longitude":"-93.2932965","geo_latitude":"45.0133712","geo_accuracy":"house","website_status":"no_website","status":"valid","business_status_determined_by":"Call","yelp_id":"troys-auto-repair-minneapolis","yelp_url":"http://www.yelp.com/biz/troys-auto-repair-minneapolis","yelp_status":"match","yelp_lat":"45.013335","yelp_long":"-93.2932945","full_address":"1100 Lowry Avenue North, Minneapolis, MN 55411, USA","neighborhood":"Folwell","google_place_id":"7926fedfc9123058cae56aac9660680392215878","google_place_img":"http://maps.gstatic.com/mapfiles/place_api/icons/generic_business-71.png","google_place_url":"https://plus.google.com/105512936818630023816/about?hl=en-US"},{"business_name":"A&J Auto Body & Motors","category":"Automotive","category_yelp":"auto","address":"808 Lowry Ave N","city":"Minneapolis","state":"Minnesota","zip":"55411","phone":"612.529.9119","geo_longitude":"-93.2897799","geo_latitude":"45.013343","geo_accuracy":"house","website_status":"no_website","status":"valid","business_status_determined_by":"Call","yelp_status":"no_match","yelp_lat":"45.013343","yelp_long":"-93.2897799","full_address":"808 Lowry Avenue North, Minneapolis, MN 55411, USA","neighborhood":"McKinley","google_place_id":"3ad83d171f7b3aa597cc1466f599c658a8db6be7","google_place_img":"http://maps.gstatic.com/mapfiles/place_api/icons/generic_business-71.png","google_place_url":"https://plus.google.com/103286548625547401540/about?hl=en-US"},{"business_name":"Highland Tire & Auto Inc","category":"Automotive","category_yelp":"auto","address":"3203 Lyndale Ave N","city":"Minneapolis","state":"Minnesota","zip":"55411","phone":"612.521.1288","geo_longitude":"-93.2885069","geo_latitude":"45.0133604","geo_accuracy":"house","website_status":"no_website","status":"valid","business_status_determined_by":"Call","yelp_status":"no_results","yelp_lat":"45.013359625806","yelp_long":"-93.288516998291","full_address":"3203 North Lyndale Avenue, Minneapolis, MN 55411, USA","neighborhood":"McKinley","google_place_id":"199655962f2d73d2ea58777974fe80bbaecbfa67","google_place_img":"http://maps.gstatic.com/mapfiles/place_api/icons/generic_business-71.png","google_place_url":"https://plus.google.com/110082374440568780854/about?hl=en-US"},{"business_name":"Northside Garage","category":"Automotive","category_yelp":"auto","address":"211 26th Ave N","city":"Minneapolis","state":"Minnesota","zip":"55418","phone":"612.522.4246","geo_longitude":"-93.264874","geo_latitude":"45.0149499","geo_accuracy":"house","website_status":"no_website","status":"valid","business_status_determined_by":"Call","yelp_status":"no_results","yelp_lat":"45.0149499","yelp_long":"-93.264874","full_address":"211 26th Avenue Northeast, Minneapolis, MN 55418, USA","neighborhood":"Northeast Minneapolis","google_place_id":"278c084f634d11297e01dd1d48c4ba611ee6209c","google_place_img":"http://maps.gstatic.com/mapfiles/place_api/icons/generic_business-71.png","google_place_url":"https://plus.google.com/116476820627472518832/about?hl=en-US"},{"business_name":"Fremont Automotive Services","category":"Automotive","category_yelp":"auto","address":"4053 Fremont Ave N","city":"Minneapolis","state":"Minnesota","zip":"55412","phone":"612.522.2663","geo_longitude":"-93.2957903","geo_latitude":"45.0294293","geo_accuracy":"house","website_status":"no_website","status":"valid","business_status_determined_by":"Call","yelp_status":"no_results","yelp_lat":"45.0294368551124","yelp_long":"-93.2958126068115","full_address":"4053 Fremont Avenue North, Minneapolis, MN 55412, USA","neighborhood":"Webber-Camden","google_place_id":"a154ace0ae28c187dbece6a881da5cc944ed2d06","google_place_img":"http://maps.gstatic.com/mapfiles/place_api/icons/generic_business-71.png","google_place_url":"https://plus.google.com/109429949343501833096/about?hl=en-US"},{"business_name":"Nghia's Automotive Services Center","category":"Automotive","category_yelp":"auto","address":"2525 42nd Ave N","city":"Minneapolis","state":"Minnesota","zip":"55412","phone":"612.588.1405","geo_longitude":"-93.3131217","geo_latitude":"45.0313103","geo_accuracy":"house","website_status":"no_website","status":"valid","business_status_determined_by":"Call","yelp_status":"no_results","yelp_lat":"45.0313172926423","yelp_long":"-93.3131504058838","full_address":"2525 North 42nd Avenue, Minneapolis, MN 55412, USA","neighborhood":"Victory","google_place_id":"aceab7d78b049e71e60fed3a8431d746ced18839","google_place_img":"http://maps.gstatic.com/mapfiles/place_api/icons/generic_business-71.png","google_place_url":"https://plus.google.com/112425636573209887090/about?hl=en-US"},{"business_name":"Northside Auto Inc.","category":"Automotive","category_yelp":"auto","address":"4200 Fremont Ave N","city":"Minneapolis","state":"Minnesota","zip":"55412","phone":"612.521.7974","geo_longitude":"-93.295555","geo_latitude":"45.0316144","geo_accuracy":"house","website":"northsideautoservices.com","website_status":"northsideautoservices.com","status":"valid","business_status_determined_by":"Website","yelp_status":"no_results","yelp_lat":"45.0316205832322","yelp_long":"-93.2955551147461","full_address":"4200 Fremont Avenue North, Minneapolis, MN 55412, USA","neighborhood":"Webber-Camden","google_place_id":"338543f8391fa1bd444e57f5a421015b8bfd0345","google_place_img":"https://lh3.googleusercontent.com/-f_XmpdndMvQ/UUW5gyv647I/AAAAAAB-2M4/i5PkaXxfS38/s1600-w400/Northside%2BAuto%252C%2BInc.","google_place_url":"https://plus.google.com/106585031471954305986/about?hl=en-US"},{"business_name":"Camden Auto","category":"Automotive","category_yelp":"auto","address":"4535 Lyndale Ave N","city":"Minneapolis","state":"Minnesota","zip":"55412","phone":"612.529.6800","geo_longitude":"-93.287979","geo_latitude":"45.037754","geo_accuracy":"house","website_status":"no_website","status":"valid","business_status_determined_by":"Call","yelp_status":"no_results","yelp_lat":"45.0377467090114","yelp_long":"-93.2880020141602","full_address":"4535 Lyndale Avenue North, Minneapolis, MN 55412, USA","neighborhood":"Lind-Bohanon","google_place_id":"746ae2fd8fc6020672b6c36a35a617ac7f578346","google_place_img":"http://maps.gstatic.com/mapfiles/place_api/icons/generic_business-71.png","google_place_url":"https://plus.google.com/118203205554885468870/about?hl=en-US"},{"business_name":"Savoren Service North Inc","category":"Automotive","category_yelp":"auto","address":"1303 44th Ave N","city":"Minneapolis","state":"Minnesota","zip":"55421","phone":"612.522.7884","geo_longitude":"-93.2407508","geo_latitude":"45.0482325","geo_accuracy":"house","website_status":"no_website","status":"valid","business_status_determined_by":"Call","yelp_status":"no_results","yelp_lat":"45.0482384502622","yelp_long":"-93.2407093048096","full_address":"1303 44th Avenue Northeast, Minneapolis, MN 55421, USA","neighborhood":"Columbia Heights","google_place_id":"df6555a4adf5b224f56c925be7f996e4ffcfc9e7","google_place_img":"http://maps.gstatic.com/mapfiles/place_api/icons/generic_business-71.png","google_place_url":"https://plus.google.com/104836122467995499536/about?hl=en-US"},{"business_name":"Guy-Am Auto Services","category":"Automotive","category_yelp":"auto","address":"4539 Lyndale Ave N","city":"Minneapolis","state":"Minnesota","zip":"55412","phone":"612.522.9222","geo_longitude":"-93.287938","geo_latitude":"45.0380309","geo_accuracy":"house","website_status":"no_website","status":"valid","business_status_determined_by":"Call","yelp_status":"no_match","full_address":"4539 Lyndale Avenue North, Minneapolis, MN 55412, USA","neighborhood":"Lind-Bohanon","google_place_id":"6c4fd0556d4cf00e7b3eaa41cadb08b4b9a52b5e","google_place_img":"http://maps.gstatic.com/mapfiles/place_api/icons/shopping-71.png","google_place_url":"https://plus.google.com/108923177055718368220/about?hl=en-US"},{"business_name":"Smarty Car Care","category":"Automotive","category_yelp":"auto","address":"2610 Lowry Ave N","city":"Minneapolis","state":"Minnesota","zip":"55411","phone":"612.588.2300","geo_longitude":"-93.313684","geo_latitude":"45.0134649","geo_accuracy":"house","website_status":"no_website","status":"valid","business_status_determined_by":"Call","yelp_status":"no_match","full_address":"2610 Lowry Avenue North, Minneapolis, MN 55411, USA","neighborhood":"Cleveland","google_place_id":"no_match"},{"business_name":"Union Liquors","category":"Bars, Pubs & Liquor Stores","category_yelp":"beer_and_wine","address":"3219 Penn Ave N","city":"Minneapolis","state":"Minnesota","zip":"55412","phone":"612.521.2222","geo_longitude":"-93.308607","geo_latitude":"45.013792","geo_accuracy":"house","website_status":"no_website","status":"valid","business_status_determined_by":"Call","yelp_id":"union-liquor-store-minneapolis","yelp_url":"http://www.yelp.com/biz/union-liquor-store-minneapolis","yelp_status":"match","yelp_lat":"45.013792","yelp_long":"-93.308607","full_address":"3219 Penn Avenue North, Minneapolis, MN 55412, USA","neighborhood":"Cleveland","google_place_id":"02336e7609d9af42f7ad47419b47de9dff568929","google_place_img":"https://lh5.googleusercontent.com/-mO6zcNRa1i4/TyDMZK1wYNI/AAAAAAAAAFo/zYmLaowahaQ/s1600-w400/Union%2BLiquors","google_place_url":"https://plus.google.com/104386536068752835008/about?hl=en-US"},{"business_name":"BJ's Liquor Lounge","category":"Bars, Pubs & Liquor Stores","category_yelp":"adultentertainment","address":"229 W Broadway Ave","city":"Minneapolis","state":"Minnesota","zip":"55411","phone":"612.521.4144","geo_longitude":"-93.2814269","geo_latitude":"44.998836","geo_accuracy":"house","website_status":"no_website","status":"valid","business_status_determined_by":"Call","yelp_id":"b-js-liquor-lounge-minneapolis","yelp_url":"http://www.yelp.com/biz/b-js-liquor-lounge-minneapolis","yelp_status":"match","yelp_lat":"44.9989949","yelp_long":"-93.2815056","full_address":"229 West Broadway Avenue, Minneapolis, MN 55411, USA","neighborhood":"Near North","google_place_id":"125546cbe8ab2a5219548c64ce06b6ba86586a1c","google_place_img":"http://maps.gstatic.com/mapfiles/place_api/icons/bar-71.png","google_place_url":"https://plus.google.com/113696636731043148803/about?hl=en-US"},{"business_name":"4th Street Saloon Inc","category":"Bars, Pubs & Liquor Stores","category_yelp":"nightlife","address":"328 W Broadway Ave","city":"Minneapolis","state":"Minnesota","zip":"55411","phone":"612.521.1021","geo_longitude":"-93.2848283","geo_latitude":"44.9991472","geo_accuracy":"house","website_status":"no_website","status":"valid","wbc_member":true,"business_status_determined_by":"Visit","yelp_id":"fourth-street-saloon-minneapolis","yelp_url":"http://www.yelp.com/biz/fourth-street-saloon-minneapolis","yelp_status":"no_results","yelp_lat":"44.999404","yelp_long":"-93.2847479","full_address":"328 West Broadway Avenue, Minneapolis, MN 55411, USA","neighborhood":"Hawthorne","google_place_id":"648da0524a0e1e098e8e9ebb61ef8d7e88bc1cb5","google_place_img":"https://lh3.googleusercontent.com/-snAEySlUkbw/T6YFCHN05gI/AAAAAAAumwg/bMj_iSQPXsM/s1600-w400/The%2BHive%2BSalon","google_place_url":"https://plus.google.com/101186045626779627924/about?hl=en-US"},{"business_name":"Merwin Liquors","category":"Bars, Pubs & Liquor Stores","category_yelp":"beer_and_wine","address":"700 W Broadway Ave","city":"Minneapolis","state":"Minnesota","zip":"55411","phone":"612.529.9639","geo_longitude":"-93.28839","geo_latitude":"44.99958","geo_accuracy":"house","website_status":"no_website","status":"valid","wbc_member":true,"business_status_determined_by":"Visit","yelp_id":"merwin-liquors-minneapolis-2","yelp_url":"http://www.yelp.com/biz/merwin-liquors-minneapolis-2","yelp_status":"match","yelp_lat":"44.99958","yelp_long":"-93.28839","full_address":"700 West Broadway Avenue, Minneapolis, MN 55411, USA","neighborhood":"Hawthorne","google_place_id":"e860b706a6c66696dcaae656cbe6a4d056fa6f98","google_place_img":"https://lh3.googleusercontent.com/-2-EmY0TQmQM/T4uCxKz7UlI/AAAAAAAJSv4/-sARzqydikE/s1600-w300/Merwin%2BLiquors%2BMinneapolis","google_place_url":"https://plus.google.com/102018884975250751365/about?hl=en-US"},{"business_name":"Broadway Liquor Outlet","category":"Bars, Pubs & Liquor Stores","category_yelp":"beer_and_wine","address":"2201 W Broadway Ave","city":"Minneapolis","state":"Minnesota","zip":"55411","phone":"612.522.4384","geo_longitude":"-93.3085032","geo_latitude":"45.0038831","geo_accuracy":"house","website":"broadwayliquors.com","website_status":"broadwayliquors.com","status":"valid","wbc_member":"yes","business_status_determined_by":"Website","yelp_id":"broadway-liquor-outlet-minneapolis","yelp_url":"http://www.yelp.com/biz/broadway-liquor-outlet-minneapolis","yelp_status":"match","yelp_lat":"45.0038831","yelp_long":"-93.3085032","full_address":"2201 West Broadway Avenue, Minneapolis, MN 55411, USA","neighborhood":"Willard-Hay","google_place_id":"7ea39c9e3dfa045a64d52ab329be0697b29bd256","google_place_img":"https://lh6.ggpht.com/-PnaZO2j9vBc/UDSyGWJUhOI/AAAAAABSXaI/8QBvm3VBS5s/s1600-w400/Broadway+Liquor+Outlet","google_place_url":"https://plus.google.com/115558508648244034555/about?hl=en-US"},{"business_name":"Donny Dirk's Zombie Den","category":"Bars, Pubs & Liquor Stores","category_yelp":"nightlife","address":"2027 N 2nd St","city":"Minneapolis","state":"Minnesota","zip":"55411","phone":"612.588.9700","geo_longitude":"-93.2804603","geo_latitude":"45.0002241","geo_accuracy":"house","website":"donnydirks.com","website_status":"donnydirks.com","status":"valid","business_status_determined_by":"Website","yelp_id":"donny-dirks-zombie-den-minneapolis","yelp_url":"http://www.yelp.com/biz/donny-dirks-zombie-den-minneapolis","yelp_status":"match","yelp_lat":"45.0002241","yelp_long":"-93.2804603","full_address":"2027 North 2nd Street, Minneapolis, MN 55411, USA","neighborhood":"Hawthorne","google_place_id":"024a7a9661b02ec2dba3460f4adb389398930396","google_place_img":"http://maps.gstatic.com/mapfiles/place_api/icons/bar-71.png","google_place_url":"https://plus.google.com/117004464792857394083/about?hl=en-US"},{"business_name":"Tootie's On Lowry","category":"Bars, Pubs & Liquor Stores","category_yelp":"nightlife","address":"2706 Lowry Ave N","city":"Minneapolis","state":"Minnesota","zip":"55411","phone":"612.529.0200","geo_longitude":"-93.314959","geo_latitude":"45.013447","geo_accuracy":"house","website_status":"no_website","status":"valid","business_status_determined_by":"Call","yelp_id":"tooties-on-lowry-minneapolis","yelp_url":"http://www.yelp.com/biz/tooties-on-lowry-minneapolis","yelp_status":"match","yelp_lat":"45.013447","yelp_long":"-93.314959","full_address":"2706 Lowry Avenue North, Minneapolis, MN 55411, USA","neighborhood":"Cleveland","google_place_id":"6a6b794bffa211ee0b460a93b31a574b3d571f67","google_place_img":"http://maps.gstatic.com/mapfiles/place_api/icons/bar-71.png","google_place_url":"https://plus.google.com/116077766432620600738/about?hl=en-US"},{"business_name":"Camden Liquors","category":"Bars, Pubs & Liquor Stores","category_yelp":"beer_and_wine","address":"4155 Lyndale Ave N","city":"Minneapolis","state":"Minnesota","zip":"55412","phone":"612.522.0001","geo_longitude":"-93.288134","geo_latitude":"45.0308929","geo_accuracy":"house","website_status":"no_website","status":"valid","business_status_determined_by":"Call","yelp_id":"camden-liquors-minneapolis","yelp_url":"http://www.yelp.com/biz/camden-liquors-minneapolis","yelp_status":"match","yelp_lat":"45.0308929","yelp_long":"-93.288134","full_address":"4155 North Lyndale Avenue, Minneapolis, MN 55412, USA","neighborhood":"Webber-Camden","google_place_id":"49131cc204ba844b80cd915e05bee2de098b4732","google_place_img":"http://maps.gstatic.com/mapfiles/place_api/icons/wine-71.png","google_place_url":"https://plus.google.com/114150043368334101737/about?hl=en-US"},{"business_name":"T-Shoppe Bar","category":"Bars, Pubs & Liquor Stores","category_yelp":"nightlife","address":"4154 Fremont Ave N","city":"Minneapolis","state":"Minnesota","zip":"55412","phone":"612.521.3373","geo_longitude":"-93.2957638","geo_latitude":"45.031216","geo_accuracy":"house","website_status":"no_website","status":"valid","business_status_determined_by":"Call","yelp_id":"t-shoppe-bar-minneapolis","yelp_url":"http://www.yelp.com/biz/t-shoppe-bar-minneapolis","yelp_status":"match","yelp_lat":"45.0314485","yelp_long":"-93.2956597","full_address":"4154 Fremont Avenue North, Minneapolis, MN 55412, USA","neighborhood":"Webber-Camden","google_place_id":"1cc402a9c43ee9e339f5dc47530c6f9e3a0abc91","google_place_img":"https://lh5.googleusercontent.com/-7JHLFOk5b2g/T1vmD6j6iXI/AAAAAAAABF0/1zqK1TnduIs/s1600-w400/T-Shoppe%2BBar","google_place_url":"https://plus.google.com/108079592321692833872/about?hl=en-US"},{"business_name":"Good Sports Bar","category":"Bars, Pubs & Liquor Stores","category_yelp":"nightlife","address":"200 Broadway St NE","city":"Minneapolis","state":"Minnesota","zip":"55413","phone":"612.302.9464","geo_longitude":"-93.265469","geo_latitude":"44.998723","geo_accuracy":"house","website_status":"no_website","status":"valid","business_status_determined_by":"Call","yelp_status":"no_match","full_address":"200 Broadway Street Northeast, Minneapolis, MN 55413, USA","neighborhood":"Northeast Minneapolis","google_place_id":"3ed3ddef332cf9797e3bc426fbd055cb6d03c327","google_place_img":"https://lh6.googleusercontent.com/-nYTNhYv4cbM/T4BBGUTAHlI/AAAAAAAHusc/Gx-9YUulmgw/s1600-w400/Good%2BSports%2BBar%2B%2526%2BGrill","google_place_url":"https://plus.google.com/101378651208123436282/about?hl=en-US"},{"business_name":"Micky's Liquor","category":"Bars, Pubs & Liquor Stores","category_yelp":"beer_and_wine","address":"1104 Plymouth Ave N","city":"Minneapolis","state":"Minnesota","zip":"55411","phone":"612.522.5412","geo_longitude":"-93.2945762","geo_latitude":"44.9924046","geo_accuracy":"house","website_status":"no_website","status":"valid","business_status_determined_by":"Call","yelp_status":"no_match","full_address":"1104 Plymouth Avenue North, Minneapolis, MN 55411, USA","neighborhood":"Near North","google_place_id":"61abc9545481d1480c2f9739902f65958c9111cd","google_place_img":"https://lh6.googleusercontent.com/-Ii7p9o6_Al8/TquUG8I_b1I/AAAAAAAAAEI/XlJQ8MrMYwk/s1600-w400/Micky%2527s%2BLiquor","google_place_url":"https://plus.google.com/117374868678850166964/about?hl=en-US"},{"business_name":"Another Bad Creation","category":"Beauty & Hair","category_yelp":"beautysvc","address":"3111 Penn Ave N","city":"Minneapolis","state":"Minnesota","zip":"55411","phone":"612.522.9171","geo_longitude":"-93.308609","geo_latitude":"45.012616","geo_accuracy":"house","website_status":"no_website","status":"valid","business_status_determined_by":"Call","yelp_status":"no_match","full_address":"3111 Penn Avenue North, Minneapolis, MN 55411, USA","neighborhood":"Jordan","google_place_id":"aa6c42d0a00f8171b0bb192d90fda7e63b0461e2","google_place_img":"http://maps.gstatic.com/mapfiles/place_api/icons/barber-71.png","google_place_url":"https://plus.google.com/111656077431492080237/about?hl=en-US"},{"business_name":"Artistic Hair Design","category":"Beauty & Hair","category_yelp":"beautysvc","address":"2643 Penn Ave N","city":"Minneapolis","state":"Minnesota","zip":"55411","phone":"612.588.2977","geo_longitude":"-93.3085849","geo_latitude":"45.007264","geo_accuracy":"house","website_status":"no_website","status":"valid","business_status_determined_by":"Call","yelp_status":"no_match","full_address":"2643 Penn Avenue North, Minneapolis, MN 55411, USA","neighborhood":"Jordan","google_place_id":"a3feb4a4016bdd81fc70753ec35f0602d045e1c4","google_place_img":"http://maps.gstatic.com/mapfiles/place_api/icons/barber-71.png","google_place_url":"https://plus.google.com/105570742366408238918/about?hl=en-US"},{"business_name":"Braid Shop","category":"Beauty & Hair","category_yelp":"beautysvc","address":"3401 Penn Ave N","city":"Minneapolis","state":"Minnesota","zip":"55412","phone":"612.588.3947","geo_longitude":"-93.3084155","geo_latitude":"45.0169816","geo_accuracy":"house","website_status":"no_website","status":"valid","business_status_determined_by":"Call","yelp_status":"no_match","full_address":"3401 Penn Avenue North, Minneapolis, MN 55412, USA","neighborhood":"Cleveland","google_place_id":"f1ba443fea681109eaef3f59d261c1bb206567cd","google_place_img":"http://maps.gstatic.com/mapfiles/place_api/icons/barber-71.png","google_place_url":"https://plus.google.com/113755047814950392922/about?hl=en-US"},{"business_name":"Hair by Jam'e","category":"Beauty & Hair","category_yelp":"beautysvc","address":"3655 Penn Ave N","city":"Minneapolis","state":"Minnesota","zip":"55412","phone":"612.521.2233","geo_longitude":"-93.3085469","geo_latitude":"45.0221166","geo_accuracy":"house","website_status":"no_website","status":"valid","business_status_determined_by":"Call","yelp_status":"no_match","full_address":"3655 Penn Avenue North, Minneapolis, MN 55412, USA","neighborhood":"Cleveland","google_place_id":"d886436e6e833fe2ed3d7baac9aeaa953bc55179","google_place_img":"http://maps.gstatic.com/mapfiles/place_api/icons/barber-71.png","google_place_url":"https://plus.google.com/117312896708660379170/about?hl=en-US"},{"business_name":"Miranda's Hair Salon","category":"Beauty & Hair","category_yelp":"beautysvc","address":"3447 Penn Ave N","city":"Minneapolis","state":"Minnesota","zip":"55412","phone":"612.287.0866","geo_longitude":"-93.3084292","geo_latitude":"45.0182924","geo_accuracy":"house","website_status":"no_website","status":"valid","business_status_determined_by":"Call","yelp_status":"no_match","full_address":"3447 Penn Avenue North, Minneapolis, MN 55412, USA","neighborhood":"Cleveland","google_place_id":"7c3042fddb552c760be69da7ffb124ad0a10f882","google_place_img":"http://maps.gstatic.com/mapfiles/place_api/icons/barber-71.png","google_place_url":"https://plus.google.com/103733331577376336893/about?hl=en-US"},{"business_name":"Neat Braids","category":"Beauty & Hair","category_yelp":"beautysvc","address":"919 W Broadway Ave","city":"Minneapolis","state":"Minnesota","zip":"55411","phone":"612.522.9554","geo_longitude":"-93.2919639","geo_latitude":"44.998882","geo_accuracy":"house","website_status":"no_website","status":"valid","business_status_determined_by":"Call","yelp_status":"no_results","yelp_lat":"44.998882","yelp_long":"-93.2919639","full_address":"919 West Broadway Avenue, Minneapolis, MN 55411, USA","neighborhood":"Near North","google_place_id":"3d7e06374dadf812189f8a5cac66938f5b30be15","google_place_img":"http://maps.gstatic.com/mapfiles/place_api/icons/barber-71.png","google_place_url":"https://plus.google.com/104589912020524339841/about?hl=en-US"},{"business_name":"Paradise Braids","category":"Beauty & Hair","category_yelp":"beautysvc","address":"919 W Broadway Ave","city":"Minneapolis","state":"Minnesota","zip":"55411","phone":"612.521.2800","geo_longitude":"-93.2919639","geo_latitude":"44.998882","geo_accuracy":"house","website_status":"no_website","status":"valid","business_status_determined_by":"Visit","yelp_status":"no_results","yelp_lat":"44.998882","yelp_long":"-93.2919639","full_address":"919 West Broadway Avenue, Minneapolis, MN 55411, USA","neighborhood":"Near North","google_place_id":"no_match"},{"business_name":"C & J Barbers Stylists","category":"Beauty & Hair","category_yelp":"beautysvc","address":"1105 W Broadway Ave","city":"Minneapolis","state":"Minnesota","zip":"55411","phone":"612.522.5409","geo_longitude":"-93.2945524","geo_latitude":"44.9990674","geo_accuracy":"house","website_status":"no_website","status":"valid","business_status_determined_by":"Call","yelp_status":"no_results","yelp_lat":"44.9990379908044","yelp_long":"-93.2945251464844","full_address":"1105 West Broadway Avenue, Minneapolis, MN 55411, USA","neighborhood":"Near North","google_place_id":"c647cb96af89f8c8174b390cc6d2dfce775df4c0","google_place_img":"http://maps.gstatic.com/mapfiles/place_api/icons/generic_business-71.png","google_place_url":"https://plus.google.com/109599291692136564578/about?hl=en-US"},{"business_name":"Flora's Hair Design","category":"Beauty & Hair","category_yelp":"beautysvc","address":"921 W Broadway Ave","city":"Minneapolis","state":"Minnesota","zip":"55411","phone":"612.522.0699","geo_longitude":"-93.2921718","geo_latitude":"44.9990409","geo_accuracy":"house","website_status":"no_website","status":"valid","business_status_determined_by":"Visit","yelp_status":"no_results","yelp_lat":"44.9990409","yelp_long":"-93.2921718","full_address":"921 West Broadway Avenue, Minneapolis, MN 55411, USA","neighborhood":"Near North","google_place_id":"bc1183294523d2955246cfb9784e0839f48c2300","google_place_img":"http://maps.gstatic.com/mapfiles/place_api/icons/barber-71.png","google_place_url":"https://plus.google.com/113737889214975555333/about?hl=en-US"},{"business_name":"Headliner's Barber Shop","category":"Beauty & Hair","category_yelp":"beautysvc","address":"1200 W Broadway Ave","city":"Minneapolis","state":"Minnesota","zip":"55411","phone":"612.287.8888","geo_longitude":"-93.2958224","geo_latitude":"44.9992616","geo_accuracy":"house","website_status":"no_website","status":"valid","business_status_determined_by":"Call","yelp_status":"no_results","yelp_lat":"44.9992807602105","yelp_long":"-93.2958126068115","full_address":"1200 West Broadway Avenue, Minneapolis, MN 55411, USA","neighborhood":"Near North","google_place_id":"6a6d5b38feddf8ffc4ae547c8a7fd0373076abec","google_place_img":"http://maps.gstatic.com/mapfiles/place_api/icons/generic_business-71.png","google_place_url":"https://plus.google.com/108758730820267350458/about?hl=en-US"},{"business_name":"Clippercuts Plus Hairstylists","category":"Beauty & Hair","category_yelp":"beautysvc","address":"2064 W Broadway Ave","city":"Minneapolis","state":"Minnesota","zip":"55411","phone":"612.521.4918","geo_longitude":"-93.306741","geo_latitude":"45.00326","geo_accuracy":"house","website_status":"no_website","status":"valid","business_status_determined_by":"Call","yelp_status":"no_results","yelp_lat":"45.0032863069051","yelp_long":"-93.306713104248","full_address":"2064 West Broadway Avenue, Minneapolis, MN 55411, USA","neighborhood":"Jordan","google_place_id":"7430e95861dee0785d550bb79bf37892d01dfe9e","google_place_img":"http://maps.gstatic.com/mapfiles/place_api/icons/generic_business-71.png","google_place_url":"https://plus.google.com/113928236112695122725/about?hl=en-US"},{"business_name":"Dimensions in Hair","category":"Beauty & Hair","category_yelp":"beautysvc","address":"1417 W Broadway Ave","city":"Minneapolis","state":"Minnesota","zip":"55411","phone":"612.529.4757","geo_longitude":"-93.2989764","geo_latitude":"44.9993996","geo_accuracy":"house","website":"dimensionsinhairsalon.com","website_status":"dimensionsinhairsalon.com","status":"valid","wbc_member":true,"business_status_determined_by":"Visit","yelp_id":"dimensions-in-hair-beauty-salon-minneapolis","yelp_url":"http://www.yelp.com/biz/dimensions-in-hair-beauty-salon-minneapolis","yelp_status":"no_match","full_address":"1417 West Broadway Avenue, Minneapolis, MN 55411, USA","neighborhood":"Near North","google_place_id":"27f59dc3b18a331c7a7e834b14b7ffdf3b85207d","google_place_img":"http://maps.gstatic.com/mapfiles/place_api/icons/barber-71.png","google_place_url":"https://plus.google.com/109934589163310528084/about?hl=en-US"},{"business_name":"En Excellence Hair Studio","category":"Beauty & Hair","category_yelp":"beautysvc","address":"1325 Morgan Ave N","city":"Minneapolis","state":"Minnesota","zip":"55411","phone":"612.588.5526","geo_longitude":"-93.304808","geo_latitude":"44.992309","geo_accuracy":"house","website_status":"no_website","status":"valid","business_status_determined_by":"Call","yelp_status":"no_match","full_address":"1325 Morgan Avenue North, Minneapolis, MN 55411, USA","neighborhood":"Willard-Hay","google_place_id":"53ab4dba7c870060ce4377925e61ff6515f9d5cb","google_place_img":"http://maps.gstatic.com/mapfiles/place_api/icons/barber-71.png","google_place_url":"https://plus.google.com/110079045996436217287/about?hl=en-US"},{"business_name":"Bintou Professional African Hair Braiding","category":"Beauty & Hair","category_yelp":"beautysvc","address":"1112 Lowry Ave N","city":"Minneapolis","state":"Minnesota","zip":"55418","phone":"612.788.0250","geo_longitude":"-93.243196","geo_latitude":"45.0131609","geo_accuracy":"house","website_status":"Bintou Braiding","status":"valid","business_status_determined_by":"Call","yelp_status":"no_results","yelp_lat":"45.0131775935926","yelp_long":"-93.2431983947754","full_address":"1112 Northeast Lowry Avenue, Minneapolis, MN 55418, USA","neighborhood":"Audubon Park","google_place_id":"no_match"},{"business_name":"Ceci Africa Hair Braiding","category":"Beauty & Hair","category_yelp":"beautysvc","address":"1225 Lowry Ave N","city":"Minneapolis","state":"Minnesota","zip":"55418","phone":"612.529.9904","geo_longitude":"-93.2411637","geo_latitude":"45.0131933","geo_accuracy":"house","website_status":"no_website","status":"valid","business_status_determined_by":"Call","yelp_status":"no_results","yelp_lat":"45.0131775935926","yelp_long":"-93.241138458252","full_address":"1225 Northeast Lowry Avenue, Minneapolis, MN 55418, USA","neighborhood":"Audubon Park","google_place_id":"no_match"},{"business_name":"Fanta's Hair Braiding","category":"Beauty & Hair","category_yelp":"beautysvc","address":"3759 Fremont Ave N","city":"Minneapolis","state":"Minnesota","zip":"55412","phone":"612.521.1060","geo_longitude":"-93.2959607","geo_latitude":"45.0238474","geo_accuracy":"house","website_status":"no_website","status":"valid","business_status_determined_by":"Call","yelp_status":"no_results","yelp_lat":"45.0238558380544","yelp_long":"-93.2959842681885","full_address":"3759 Fremont Avenue North, Minneapolis, MN 55412, USA","neighborhood":"Folwell","google_place_id":"96bd44344f56d3ef317138f1f60d49b2147a817c","google_place_img":"http://maps.gstatic.com/mapfiles/place_api/icons/barber-71.png","google_place_url":"https://plus.google.com/103844419185013927714/about?hl=en-US"},{"business_name":"Brian Ds Old School Barber","category":"Beauty & Hair","category_yelp":"beautysvc","address":"3116 Fremont Ave N","city":"Minneapolis","state":"Minnesota","zip":"55411","phone":"612.522.3312","geo_longitude":"-93.295302","geo_latitude":"45.012911","geo_accuracy":"house","website_status":"no_website","status":"valid","business_status_determined_by":"Call","yelp_status":"no_results","yelp_lat":"45.0129348830746","yelp_long":"-93.2952976226807","full_address":"3116 Fremont Avenue North, Minneapolis, MN 55411, USA","neighborhood":"Jordan","google_place_id":"19c43fe1c0c685e523195ebea0d56f742aa6058c","google_place_img":"http://maps.gstatic.com/mapfiles/place_api/icons/generic_business-71.png","google_place_url":"https://plus.google.com/109032507738727300059/about?hl=en-US"},{"business_name":"Betty's Professional Hair Design","category":"Beauty & Hair","category_yelp":"beautysvc","address":"3118 Fremont Ave N","city":"Minneapolis","state":"Minnesota","zip":"55411","phone":"612.522.2145","geo_longitude":"-93.2955666","geo_latitude":"45.0129184","geo_accuracy":"house","website_status":"no_website","status":"valid","business_status_determined_by":"Call","yelp_status":"no_match","full_address":"3118 Fremont Avenue North, Minneapolis, MN 55411, USA","neighborhood":"Jordan","google_place_id":"f59f0c8b2a7aa074df50a35895f84355a594cd8f","google_place_img":"http://maps.gstatic.com/mapfiles/place_api/icons/barber-71.png","google_place_url":"https://plus.google.com/102229486108054595544/about?hl=en-US"},{"business_name":"Pro Hair Design","category":"Beauty & Hair","category_yelp":"beautysvc","address":"3118 Fremont Ave N","city":"Minneapolis","state":"Minnesota","zip":"55411","phone":"612.522.2145","geo_longitude":"-93.2955666","geo_latitude":"45.0129184","geo_accuracy":"house","website_status":"no_website","status":"valid","business_status_determined_by":"Call","yelp_status":"no_match","full_address":"3118 Fremont Avenue North, Minneapolis, MN 55411, USA","neighborhood":"Jordan","google_place_id":"f59f0c8b2a7aa074df50a35895f84355a594cd8f","google_place_img":"http://maps.gstatic.com/mapfiles/place_api/icons/barber-71.png","google_place_url":"https://plus.google.com/102229486108054595544/about?hl=en-US"},{"business_name":"Nu Wireless","category":"Cellular Sales & Services","category_yelp":"mobilephones","address":"523 W Broadway Ave","city":"Minneapolis","state":"Minnesota","zip":"55411","phone":"612.522.9773","geo_longitude":"-93.2868375","geo_latitude":"44.9991259","geo_accuracy":"house","website_status":"no_website","status":"valid","business_status_determined_by":"Call","yelp_status":"no_results","yelp_lat":"44.9991259","yelp_long":"-93.2868375","full_address":"523 West Broadway Avenue, Minneapolis, MN 55411, USA","google_place_id":"5692717f5ed0fdf966e2bacfdaf3878144893fcf","google_place_img":"http://maps.gstatic.com/mapfiles/place_api/icons/electronics-71.png","google_place_url":"https://plus.google.com/115438822718232218932/about?hl=en-US"},{"business_name":"West Wireless","category":"Cellular Sales & Services","category_yelp":"mobilephones","address":"929 W Broadway Ave","city":"Minneapolis","state":"Minnesota","zip":"55411","phone":"612.522.9330","geo_longitude":"-93.2924012","geo_latitude":"44.9991384","geo_accuracy":"house","website_status":"no_website","status":"valid","business_status_determined_by":"Call","yelp_status":"no_results","yelp_lat":"44.9991384","yelp_long":"-93.2924012","full_address":"929 West Broadway Avenue, Minneapolis, MN 55411, USA","neighborhood":"Near North","google_place_id":"8ec6d9d43373dee8b815ac40314b1b92e3015c09","google_place_img":"http://maps.gstatic.com/mapfiles/place_api/icons/electronics-71.png","google_place_url":"https://plus.google.com/100689249537755150250/about?hl=en-US"},{"business_name":"Communication Networks System","category":"Cellular Sales & Services","category_yelp":"mobilephones","address":"1506 W Broadway Ave","city":"Minneapolis","state":"Minnesota","zip":"55411","phone":"612.521.1531","geo_longitude":"-93.2994534","geo_latitude":"44.9997196","geo_accuracy":"house","website_status":"no_website","status":"valid","business_status_determined_by":"Call","yelp_status":"no_match","full_address":"1506 West Broadway Avenue, Minneapolis, MN 55411, USA","neighborhood":"Jordan","google_place_id":"dba150f07709309c17701d9a7e0642dd08056aed","google_place_img":"http://maps.gstatic.com/mapfiles/place_api/icons/electronics-71.png","google_place_url":"https://plus.google.com/113938804929231248151/about?hl=en-US"},{"business_name":"Berean Licensed Daycare","category":"Childcare Services","category_yelp":"childcare","address":"2704 Dupont Ave N","city":"Minneapolis","state":"Minnesota","zip":"55411","phone":"612.522.0335","geo_longitude":"-93.292686","geo_latitude":"45.007983","geo_accuracy":"house","website_status":"no_website","status":"valid","yelp_status":"no_results","yelp_lat":"45.0079590907758","yelp_long":"-93.2927227020264","full_address":"2704 North Dupont Avenue, Minneapolis, MN 55411, USA","neighborhood":"Hawthorne","google_place_id":"b4daee638e506c6e1c10f5560fa4babcee9c0fb2","google_place_img":"http://maps.gstatic.com/mapfiles/place_api/icons/generic_business-71.png","google_place_url":"https://plus.google.com/101468346464032732315/about?hl=en-US"},{"business_name":"A&M Business Interior Service","category":"Commercial, Industrial, Technology & Building Supplies","category_yelp":"interiordesign","address":"1300 Washington Ave N","city":"Minneapolis","state":"Minnesota","zip":"55411","phone":"612.627.1600","geo_longitude":"-93.2813194","geo_latitude":"44.992096","geo_accuracy":"house","website":"ambis.com","website_status":"ambis.com","status":"valid","business_status_determined_by":"Website","yelp_status":"no_match","full_address":"1300 Washington Avenue North, Minneapolis, MN 55411, USA","neighborhood":"Near North","google_place_id":"no_match"},{"business_name":"Rex Mills Printing Company","category":"Commercial, Industrial, Technology & Building Supplies","category_yelp":"copyshops","address":"1914 Washington Ave N","city":"Minneapolis","state":"Minnesota","zip":"55411","phone":"612.522.0009","geo_longitude":"-93.281361","geo_latitude":"44.998667","geo_accuracy":"house","website_status":"no_website","status":"valid","wbc_member":"yes","business_status_determined_by":"Call","yelp_id":"rex-mills-printing-co-printers-minneapolis","yelp_url":"http://www.yelp.com/biz/rex-mills-printing-co-printers-minneapolis","yelp_status":"match","yelp_lat":"44.9986738347666","yelp_long":"-93.2813930511475","full_address":"1914 Washington Avenue North, Minneapolis, MN 55411, USA","neighborhood":"Near North","google_place_id":"4d8851cedb3f20cf2c6dbf9d6da8d231e3834019","google_place_img":"http://maps.gstatic.com/mapfiles/place_api/icons/generic_business-71.png","google_place_url":"https://plus.google.com/110332646967183687217/about?hl=en-US"},{"business_name":"Air Climate Systems","category":"Commercial, Industrial, Technology & Building Supplies","category_yelp":"hvac","address":"2800 W Broadway Ave","city":"Minneapolis","state":"Minnesota","zip":"55411","phone":"612.588.1032","geo_longitude":"-93.3161077","geo_latitude":"45.0112321","geo_accuracy":"house","website":"airclimate.com","website_status":"airclimate.com","status":"valid","business_status_determined_by":"Website","yelp_status":"no_match","full_address":"2800 West Broadway Avenue, Minneapolis, MN 55411, USA","neighborhood":"Jordan","google_place_id":"daa7e77213588b7a3cca749c3303185c03680fda","google_place_img":"http://maps.gstatic.com/mapfiles/place_api/icons/generic_business-71.png","google_place_url":"https://plus.google.com/118104895780875015152/about?hl=en-US"},{"business_name":"Rajin & Daughters Contracting","category":"Commercial, Industrial, Technology & Building Supplies","category_yelp":"contractors","address":"615 Penn Ave N","city":"Minneapolis","state":"Minnesota","zip":"55411","phone":"612.275.3624","geo_longitude":"-93.308682","geo_latitude":"44.984784","geo_accuracy":"house","status":"valid","business_status_determined_by":"Call","yelp_status":"no_results","yelp_lat":"44.984784","yelp_long":"-93.308682","full_address":"615 Penn Avenue North, Minneapolis, MN 55411, USA","neighborhood":"Willard-Hay","google_place_id":"a66c89ae7198d11dbd3646ed6eed234d532ceab6","google_place_img":"http://maps.gstatic.com/mapfiles/place_api/icons/generic_business-71.png","google_place_url":"https://plus.google.com/113863252972826142158/about?hl=en-US"},{"business_name":"North End Hardware","category":"Commercial, Industrial, Technology & Building Supplies","category_yelp":"hardware","address":"3117 Penn Ave N","city":"Minneapolis","state":"Minnesota","zip":"55412","phone":"612.529.9151","geo_longitude":"-93.308388","geo_latitude":"45.0130303","geo_accuracy":"house","website":"northendhardware.com","website_status":"northendhardware.com","status":"valid","business_status_determined_by":"Website","yelp_id":"north-end-hardware-and-rental-minneapolis","yelp_url":"http://www.yelp.com/biz/north-end-hardware-and-rental-minneapolis","yelp_status":"match","yelp_lat":"45.0130303","yelp_long":"-93.308388","full_address":"3117 Penn Avenue North, Minneapolis, MN 55412, USA","neighborhood":"Jordan","google_place_id":"44026a5f0c28645879527edd227ccf20b35d8ca0","google_place_img":"https://lh5.googleusercontent.com/-GmJEsPC-APw/UTkhIETfmCI/AAAAAAAAAXs/Az2W5XKEd4E/s1600-w400/window%2Bshop.JPG","google_place_url":"https://plus.google.com/104990478067724315403/about?hl=en-US"},{"business_name":"Legvold Construction CG","category":"Commercial, Industrial, Technology & Building Supplies","category_yelp":"contractors","address":"3117 Penn Ave N","city":"Minneapolis","state":"Minnesota","zip":"55412","phone":"912.521.8171","geo_longitude":"-93.308388","geo_latitude":"45.0130303","geo_accuracy":"house","website":"cglegvold.com","website_status":"cglegvold.com","status":"valid","business_status_determined_by":"Website","yelp_status":"no_results","yelp_lat":"45.0130562384622","yelp_long":"-93.3084297180176","full_address":"3117 Penn Avenue North, Minneapolis, MN 55412, USA","neighborhood":"Jordan","google_place_id":"1fd60fa55ac87e1d9bfe058bda5fd1af45a821cf","google_place_img":"http://maps.gstatic.com/mapfiles/place_api/icons/generic_business-71.png","google_place_url":"https://plus.google.com/106218521413269700009/about?hl=en-US"},{"business_name":"Sallblad Electric Company","category":"Commercial, Industrial, Technology & Building Supplies","category_yelp":"electricians","address":"909 W Broadway Ave","city":"Minneapolis","state":"Minnesota","zip":"55411","phone":"612.529.9101","geo_longitude":"-93.291583","geo_latitude":"44.9990553","geo_accuracy":"house","website_status":"no_website","status":"valid","business_status_determined_by":"Call","yelp_status":"no_results","yelp_lat":"44.998883","yelp_long":"-93.291532","full_address":"909 West Broadway Avenue, Minneapolis, MN 55411, USA","neighborhood":"Near North","google_place_id":"no_match"},{"business_name":"Varnado Printing Center Inc.","category":"Commercial, Industrial, Technology & Building Supplies","category_yelp":"copyshops","address":"1017 W Broadway Ave","city":"Minneapolis","state":"Minnesota","zip":"55411","phone":"612.521.7621","geo_longitude":"-93.293385","geo_latitude":"44.998887","geo_accuracy":"house","website_status":"no_website","status":"valid","wbc_member":"yes","business_status_determined_by":"website","yelp_status":"no_results","yelp_lat":"44.9989166057156","yelp_long":"-93.2934093475342","full_address":"1017 West Broadway Avenue, Minneapolis, MN 55411, USA","neighborhood":"Near North","google_place_id":"2cb89184d01b6b7d557a61f9f857faf3d4ac3da5","google_place_img":"http://maps.gstatic.com/mapfiles/place_api/icons/generic_business-71.png","google_place_url":"https://plus.google.com/117319939469856104091/about?hl=en-US"},{"business_name":"Prestige Products Inc.","category":"Commercial, Industrial, Technology & Building Supplies","category_yelp":"industry","address":"1401 W Broadway Ave","city":"Minneapolis","state":"Minnesota","zip":"55411","phone":"612.521.8808","geo_longitude":"-93.298106","geo_latitude":"44.998983","geo_accuracy":"house","website":"prestige-products.com","website_status":"prestige-products.com","status":"valid","business_status_determined_by":"Website","yelp_status":"no_results","yelp_lat":"44.9989772982921","yelp_long":"-93.2981300354004","full_address":"1401 West Broadway Avenue, Minneapolis, MN 55411, USA","neighborhood":"Near North","google_place_id":"18acf31a6a097b74da703762de6ffd8599a4126a","google_place_img":"http://maps.gstatic.com/mapfiles/place_api/icons/generic_business-71.png","google_place_url":"https://plus.google.com/105114510230336247575/about?hl=en-US"},{"business_name":"Kemp's","category":"Commercial, Industrial, Technology & Building Supplies","category_yelp":"industry","address":"420 W Broadway Ave","city":"Minneapolis","state":"Minnesota","zip":"55411","phone":"612.522.3151","geo_longitude":"-93.2850208","geo_latitude":"44.9991901","geo_accuracy":"house","website":"kemps.com","website_status":"kemps.com","status":"valid","yelp_status":"no_results","yelp_lat":"44.9991901","yelp_long":"-93.2850208","full_address":"420 West Broadway Avenue, Minneapolis, MN 55411, USA","google_place_id":"2439646b2b7cf0ecf46e06c7ccf6a066a62ce345","google_place_img":"http://maps.gstatic.com/mapfiles/place_api/icons/generic_business-71.png","google_place_url":"https://plus.google.com/106081209094403084574/about?hl=en-US"},{"business_name":"Diamond Vogel Paint & Custom Manufacturing","category":"Commercial, Industrial, Technology & Building Supplies","category_yelp":"buildingsupplies","address":"120 W Broadway Ave","city":"Minneapolis","state":"Minnesota","zip":"55411","phone":"612.521.4707","geo_longitude":"-93.2796995","geo_latitude":"44.9992762","geo_accuracy":"house","website":"diamondvogel.com","website_status":"diamondvogel.com","status":"valid","business_status_determined_by":"Website","yelp_status":"no_results","yelp_lat":"44.9992762","yelp_long":"-93.2796995","full_address":"120 West Broadway Avenue, Mississippi National River and Recreation Area, Minneapolis, MN 55411, USA","neighborhood":"Hawthorne","google_place_id":"no_match"},{"business_name":"RSI Laboratories","category":"Commercial, Industrial, Technology & Building Supplies","category_yelp":"laboratorytesting","address":"1931 W Broadway Ave","city":"Minneapolis","state":"Minnesota","zip":"55411","phone":"612.287.1660","geo_longitude":"-93.305706","geo_latitude":"45.000752","geo_accuracy":"house","website":"rsilaboratories.org","website_status":"rsilaboratories.org","status":"valid","business_status_determined_by":"website","yelp_status":"no_results","yelp_lat":"45.0009801172521","yelp_long":"-93.3055973052978","full_address":"1931 West Broadway Avenue, Minneapolis, MN 55411, USA","neighborhood":"Willard-Hay","google_place_id":"7b2f356271efc803eab8602490cf23a6ca6ed5cd","google_place_img":"http://maps.gstatic.com/mapfiles/place_api/icons/generic_business-71.png","google_place_url":"https://plus.google.com/102948961952490796891/about?hl=en-US"},{"business_name":"AC/DC Penn Electric Motor Service","category":"Commercial, Industrial, Technology & Building Supplies","category_yelp":"auto","address":"2515 W Broadway Ave","city":"Minneapolis","state":"Minnesota","zip":"55411","phone":"612.588.5333","geo_longitude":"-93.3128415","geo_latitude":"45.0068543","geo_accuracy":"house","website_status":"no_website","status":"valid","business_status_determined_by":"Call","yelp_status":"no_results","yelp_lat":"45.0068667858263","yelp_long":"-93.3128070831299","full_address":"2515 West Broadway Avenue, Minneapolis, MN 55411, USA","neighborhood":"Willard-Hay","google_place_id":"a4c2c07e175849b626d64da94f2f4be756d5af52","google_place_img":"http://maps.gstatic.com/mapfiles/place_api/icons/generic_business-71.png","google_place_url":"https://plus.google.com/109457990882847532660/about?hl=en-US"},{"business_name":"Discount Steel & Aluminum","category":"Commercial, Industrial, Technology & Building Supplies","category_yelp":"buildingsupplies","address":"216 27th Ave N","city":"Minneapolis","state":"Minnesota","zip":"55411","phone":"612.522.5956","geo_longitude":"-93.2807739","geo_latitude":"45.007715","geo_accuracy":"house","website":"discountsteel.com","website_status":"discountsteel.com","status":"valid","business_status_determined_by":"Website","yelp_status":"no_results","yelp_lat":"45.007715","yelp_long":"-93.2807739","full_address":"216 27th Avenue North, Minneapolis, MN 55411, USA","neighborhood":"Hawthorne","google_place_id":"adca12a5e20feca10e0c19b4c8b664329e800e12","google_place_img":"https://lh3.googleusercontent.com/-UvJXFh7DkMw/UVa0BNCUVRI/AAAAAACAO8s/QTM_YB7gogE/s1600-w400/Discount%2BSteel%2BInc.","google_place_url":"https://plus.google.com/101864142733263815468/about?hl=en-US"},{"business_name":"Architectural Construction Services","category":"Commercial, Industrial, Technology & Building Supplies","category_yelp":"architects","address":"230 24th Ave N","city":"Minneapolis","state":"Minnesota","zip":"55418","phone":"612.819.2477","geo_longitude":"-93.2657017","geo_latitude":"45.0121588","geo_accuracy":"house","website_status":"no_website","status":"valid","hours_of_operation":"Mon-Fri 7am-11:30, 12:30-4:00","business_status_determined_by":"Call","yelp_status":"no_match","full_address":"230 24th Avenue Northeast, Minneapolis, MN 55418, USA","neighborhood":"Northeast Minneapolis","google_place_id":"6d1ac729ee3be48f15942d7793f02160874d6f69","google_place_img":"http://maps.gstatic.com/mapfiles/place_api/icons/generic_business-71.png","google_place_url":"https://plus.google.com/115268173642487769368/about?hl=en-US"},{"business_name":"Your Way Flooring, LLC","category_yelp":"flooring","phone":"612.423.0082","website_status":"facebook","status":"valid","wbc_member":"yes","facebook_url":"https://www.facebook.com/YourWayFlooringLLC"},{"business_name":"AnderBel Construction LLC","category":"Commercial, Industrial, Technology & Building Supplies","category_yelp":"contractors","address":"227 Colfax Ave N","city":"Minneapolis","state":"Minnesota","zip":"55405","phone":"612.685.2881","geo_longitude":"-93.2916124","geo_latitude":"44.9790621","geo_accuracy":"house","website_status":"no_website","status":"valid","business_status_determined_by":"Call","yelp_status":"no_results","yelp_lat":"44.9790621","yelp_long":"-93.2916124","full_address":"227 Colfax Avenue North, Minneapolis, MN 55405, USA","neighborhood":"Near North","google_place_id":"no_match"},{"business_name":"ADL Pier Design","category":"Commercial, Industrial, Technology & Building Supplies","category_yelp":"architects","address":"275 Market St","city":"Minneapolis","state":"Minnesota","zip":"55405","phone":"612.598.9808","geo_longitude":"-93.2896866","geo_latitude":"44.9804925","geo_accuracy":"house","website_status":"ADL Pier Design","status":"valid","business_status_determined_by":"Website","yelp_status":"no_results","yelp_lat":"44.9804925","yelp_long":"-93.2896866","full_address":"275 Market Street, Minneapolis, MN 55405, USA","google_place_id":"no_match"},{"business_name":"Sterling Wire & Cable","category":"Commercial, Industrial, Technology & Building Supplies","category_yelp":"industry","address":"1117 Aldrich Ave N","city":"Minneapolis","state":"Minnesota","zip":"55411","phone":"612.521.8555","geo_longitude":"-93.2896586","geo_latitude":"44.9896396","geo_accuracy":"house","website":"sterlingwireandcable.com","website_status":"sterlingwireandcable.com","status":"valid","business_status_determined_by":"Website","yelp_status":"no_results","yelp_lat":"44.9896298841239","yelp_long":"-93.2896327972412","full_address":"1117 North Aldrich Avenue, Minneapolis, MN 55411, USA","neighborhood":"Near North","google_place_id":"5ba1ee70cb0f5318ba94f52d3b5a9d211e88d14a","google_place_img":"http://maps.gstatic.com/mapfiles/place_api/icons/generic_business-71.png","google_place_url":"https://plus.google.com/104460005336985608111/about?hl=en-US"},{"business_name":"Vera Construction Inc.","category":"Commercial, Industrial, Technology & Building Supplies","category_yelp":"contractors","address":"2020 Aldrich Ave N","city":"Minneapolis","state":"Minnesota","zip":"55411","phone":"612.522.0887","geo_longitude":"-93.2895016","geo_latitude":"44.9999255","geo_accuracy":"house","website_status":"no_website","status":"valid","business_status_determined_by":"call","yelp_status":"no_results","yelp_lat":"44.9999483707735","yelp_long":"-93.2894611358643","full_address":"2020 North Aldrich Avenue, Minneapolis, MN 55411, USA","google_place_id":"c0b82882091a62b79b6250854e6977ad40e1424c","google_place_img":"http://maps.gstatic.com/mapfiles/place_api/icons/generic_business-71.png","google_place_url":"https://plus.google.com/101830371633584503562/about?hl=en-US"},{"business_name":"Holmlund Masonry","category":"Commercial, Industrial, Technology & Building Supplies","category_yelp":"masonry_concrete","address":"1410 N 2nd St","city":"Minneapolis","state":"Minnesota","zip":"55411","phone":"612.827.7669","geo_longitude":"-93.279396","geo_latitude":"44.993644","geo_accuracy":"house","website":"masonry.com","website_status":"masonry.com","status":"valid","business_status_determined_by":"Website","yelp_id":"holmlund-masonry-minneapolis-2","yelp_url":"http://www.yelp.com/biz/holmlund-masonry-minneapolis-2","yelp_status":"match","yelp_lat":"44.993644","yelp_long":"-93.279396","full_address":"1410 North 2nd Street, Mississippi National River and Recreation Area, Minneapolis, MN 55411, USA","neighborhood":"Near North","google_place_id":"887209d90225f492813e4a2c1693acad4312b0f7","google_place_img":"http://maps.gstatic.com/mapfiles/place_api/icons/generic_business-71.png","google_place_url":"https://plus.google.com/100506889869537857113/about?hl=en-US"},{"business_name":"Kirschbaum-Krupp Metal Recycling","category":"Commercial, Industrial, Technology & Building Supplies","category_yelp":"recyclingcenters","address":"1728 N 2nd St","city":"Minneapolis","state":"Minnesota","zip":"55411","phone":"612.521.9212","geo_longitude":"-93.2797717","geo_latitude":"44.99652","geo_accuracy":"house","website":"kirschbaumkrupp.com","website_status":"kirschbaumkrupp.com","status":"valid","business_status_determined_by":"Website","yelp_status":"no_results","yelp_lat":"44.9965495450857","yelp_long":"-93.2797622680664","full_address":"1728 North 2nd Street, Mississippi National River and Recreation Area, Minneapolis, MN 55411, USA","neighborhood":"Near North","google_place_id":"9d6aa4cd4ac81676ea38ec85484b24fa494b89c0","google_place_img":"https://lh5.googleusercontent.com/-vw044nfsQEg/UTuHdjSPwfI/AAAAAAAAAAs/e-6Mt4vOYHA/s1600-w400/KK%2B092013.jpg","google_place_url":"https://plus.google.com/103698359030757545969/about?hl=en-US"},{"business_name":"Brin Northwestern Glass Co.","category":"Commercial, Industrial, Technology & Building Supplies","category_yelp":"buildingsupplies","address":"2300 N 2nd St","city":"Minneapolis","state":"Minnesota","zip":"55411","phone":"612.529.9671","geo_longitude":"-93.2801053","geo_latitude":"45.003599","geo_accuracy":"house","website":"bringlass.com","website_status":"bringlass.com","status":"valid","business_status_determined_by":"Website","yelp_id":"brin-northwestern-glass-co-minneapolis","yelp_url":"http://www.yelp.com/biz/brin-northwestern-glass-co-minneapolis","yelp_status":"match","yelp_lat":"45.003599","yelp_long":"-93.2801053","full_address":"2300 North 2nd Street, Mississippi National River and Recreation Area, Minneapolis, MN 55411, USA","neighborhood":"Near North","google_place_id":"28a6ebb8d11e7f26e92311a104a91d9f7fb52158","google_place_img":"http://maps.gstatic.com/mapfiles/place_api/icons/generic_business-71.png","google_place_url":"https://plus.google.com/105570051248414813232/about?hl=en-US"},{"business_name":"Bauer Brothers Salvage","category":"Commercial, Industrial, Technology & Building Supplies","category_yelp":"antiques","address":"2432 N 2nd St","city":"Minneapolis","state":"Minnesota","zip":"55411","phone":"612.521.9492","geo_longitude":"-93.279419","geo_latitude":"45.004554","geo_accuracy":"house","website":"bauerbrotherssalvage.com","website_status":"bauerbrotherssalvage.com","status":"valid","hours_of_operation":"Mon-Fri 8am-5pm, Sat 8am-1pm","business_status_determined_by":"Website","yelp_id":"bauer-brothers-salvage-minneapolis","yelp_url":"http://www.yelp.com/biz/bauer-brothers-salvage-minneapolis","yelp_status":"match","yelp_lat":"45.0046519","yelp_long":"-93.2800507","full_address":"2432 North 2nd Street, Mississippi National River and Recreation Area, Minneapolis, MN 55411, USA","neighborhood":"Hawthorne","google_place_id":"9ae60a6ee3094d5c89a07450d6c6f3a43225a1d4","google_place_img":"https://lh6.googleusercontent.com/-S1LqF2wDjMU/UTEJ-c8_ZaI/AAAAAAAAADI/m1C0U-E8xaE/s1600-w400/bauer-bros.jpg","google_place_url":"https://plus.google.com/102122685316357944805/about?hl=en-US"},{"business_name":"Goodin Co.","category":"Commercial, Industrial, Technology & Building Supplies","category_yelp":"plumbing","address":"2700 N 2nd St","city":"Minneapolis","state":"Minnesota","zip":"55411","phone":"612.588.7811","geo_longitude":"-93.27947","geo_latitude":"45.007752","geo_accuracy":"house","website":"goodinco.com","website_status":"goodinco.com","status":"valid","business_status_determined_by":"Call","yelp_status":"no_results","yelp_lat":"45.0077770413974","yelp_long":"-93.279504776001","full_address":"2700 North 2nd Street, Mississippi National River and Recreation Area, Minneapolis, MN 55411, USA","neighborhood":"Hawthorne","google_place_id":"e116ee2e9f29f8cf49ffc9a4b839628cd4ae6372","google_place_img":"http://maps.gstatic.com/mapfiles/place_api/icons/generic_business-71.png","google_place_url":"https://plus.google.com/107450176327017044657/about?hl=en-US"},{"business_name":"American Chemical","category":"Commercial, Industrial, Technology & Building Supplies","category_yelp":"industry","address":"2201 N 2nd St","city":"Minneapolis","state":"Minnesota","zip":"55411","phone":"612.202.6115","geo_longitude":"-93.280668","geo_latitude":"45.001743","geo_accuracy":"house","website":"glueit.com","website_status":"glueit.com","status":"valid","hours_of_operation":"Mon-Fri 9am-5pm","wbc_member":true,"business_status_determined_by":"Website","yelp_status":"no_match","full_address":"2201 North 2nd Street, Minneapolis, MN 55411, USA","neighborhood":"Hawthorne","google_place_id":"08f7f8ab0490654af49b9847b46c12cf1f8b4102","google_place_img":"https://lh6.googleusercontent.com/-zEbGUJE_1bs/UD4MkxxgWkI/AAAAAABTJls/4Lck3QcLGEw/s1600-w400/American%2BChemical%2BInc","google_place_url":"https://plus.google.com/103173706170280269940/about?hl=en-US"},{"business_name":"Check Point Welding & Fabrication","category":"Commercial, Industrial, Technology & Building Supplies","category_yelp":"homeservices","address":"2313 N 2nd St","city":"Minneapolis","state":"Minnesota","zip":"55411","phone":"612.256.4851","geo_longitude":"-93.280669","geo_latitude":"45.003207","geo_accuracy":"house","website_status":"Check Point Welding","status":"valid","hours_of_operation":"Mon-Thu 730am-5pm, Fri 730am-4pm","business_status_determined_by":"Website","yelp_status":"no_match","full_address":"2313 North 2nd Street, Minneapolis, MN 55411, USA","neighborhood":"Hawthorne","google_place_id":"7caec067a9985ee7b864ad829f3e8b05a78ccd95","google_place_img":"http://maps.gstatic.com/mapfiles/place_api/icons/generic_business-71.png","google_place_url":"https://plus.google.com/109726687166987245725/about?hl=en-US"},{"business_name":"JR Williams Co.","category":"Commercial, Industrial, Technology & Building Supplies","category_yelp":"homeservices","address":"3101 N 2nd St","city":"Minneapolis","state":"Minnesota","zip":"55411","phone":"612.522.4381","geo_longitude":"-93.281011","geo_latitude":"45.012337","geo_accuracy":"house","website":"jrwilliamsco.com","website_status":"jrwilliamsco.com","status":"valid","business_status_determined_by":"Call","yelp_status":"no_match","full_address":"3101 North 2nd Street, Minneapolis, MN 55411, USA","neighborhood":"Hawthorne","google_place_id":"f2cd80baa8ebd40cb84f1fa6c86eaef24fd85bbc","google_place_img":"http://maps.gstatic.com/mapfiles/place_api/icons/generic_business-71.png","google_place_url":"https://plus.google.com/102746443537805491866/about?hl=en-US"},{"business_name":"Metro Electric Construction Co.","category":"Commercial, Industrial, Technology & Building Supplies","category_yelp":"contractors","address":"2825 N 2nd St","city":"Minneapolis","state":"Minnesota","zip":"55411","phone":"612.588.6658","geo_longitude":"-93.28063","geo_latitude":"45.009283","geo_accuracy":"house","website_status":"no_website","status":"valid","business_status_determined_by":"Call","yelp_status":"no_match","full_address":"2825 North 2nd Street, Mississippi National River and Recreation Area, Minneapolis, MN 55411, USA","neighborhood":"Hawthorne","google_place_id":"6cb8c245c391cd78407edf553c6bddc5e6043036","google_place_img":"http://maps.gstatic.com/mapfiles/place_api/icons/generic_business-71.png","google_place_url":"https://plus.google.com/117994094159469619249/about?hl=en-US"},{"business_name":"North Second Street Steel","category":"Commercial, Industrial, Technology & Building Supplies","category_yelp":"buildingsupplies","address":"2212 N 2nd St","city":"Minneapolis","state":"Minnesota","zip":"55411","phone":"612.522.6626","geo_longitude":"-93.279737","geo_latitude":"45.001972","geo_accuracy":"house","website":"nssss.com","website_status":"nssss.com","status":"valid","business_status_determined_by":"Website","yelp_status":"no_match","full_address":"2212 North 2nd Street, Mississippi National River and Recreation Area, Minneapolis, MN 55411, USA","neighborhood":"Hawthorne","google_place_id":"7f67192af7c27bd8b7778b16b5f8be36a08c8bce","google_place_img":"http://maps.gstatic.com/mapfiles/place_api/icons/generic_business-71.png","google_place_url":"https://plus.google.com/108796926701677190312/about?hl=en-US"},{"business_name":"Olsen Fish Company","category":"Commercial, Industrial, Technology & Building Supplies","category_yelp":"gourmet","address":"2115 N 2nd St","city":"Minneapolis","state":"Minnesota","zip":"55411","phone":"612.281.0838","geo_longitude":"-93.2804134","geo_latitude":"45.0007544","geo_accuracy":"house","website":"olsenfish.com","website_status":"olsenfish.com","status":"valid","business_status_determined_by":"Website","yelp_status":"no_match","full_address":"2115 North 2nd Street, Mississippi National River and Recreation Area, Minneapolis, MN 55411, USA","neighborhood":"Hawthorne","google_place_id":"6b9c18e7cfbc39cae6a166c624fd1ba64206221b","google_place_img":"http://maps.gstatic.com/mapfiles/place_api/icons/generic_business-71.png","google_place_url":"https://plus.google.com/117838760967912520844/about?hl=en-US"},{"business_name":"Trio Construction and Supply","category":"Commercial, Industrial, Technology & Building Supplies","category_yelp":"contractors","address":"3112 N 2nd St","city":"Minneapolis","state":"Minnesota","zip":"55411","phone":"612.522.3822","geo_longitude":"-93.2805362","geo_latitude":"45.0123845","geo_accuracy":"house","website":"triosupply.com","website_status":"triosupply.com","status":"valid","business_status_determined_by":"Website","yelp_status":"no_match","full_address":"3112 North 2nd Street, Mississippi National River and Recreation Area, Minneapolis, MN 55411, USA","neighborhood":"Hawthorne","google_place_id":"209e6640dfe7bbc9a65f2e596ab2b31c5f04b039","google_place_img":"http://maps.gstatic.com/mapfiles/place_api/icons/generic_business-71.png","google_place_url":"https://plus.google.com/107384478502137383544/about?hl=en-US"},{"business_name":"Tull Bearings","category":"Commercial, Industrial, Technology & Building Supplies","category_yelp":"industry","address":"2530 N 2nd St","city":"Minneapolis","state":"Minnesota","zip":"55411","phone":"612.588.1185","geo_longitude":"-93.2801257","geo_latitude":"45.0058897","geo_accuracy":"house","website_status":"no_website","status":"valid","business_status_determined_by":"call","yelp_status":"no_match","full_address":"2530 North 2nd Street, Mississippi National River and Recreation Area, Minneapolis, MN 55411, USA","neighborhood":"Hawthorne","google_place_id":"2a95660b81843d31ccc997b867d5855f424cb9d7","google_place_img":"http://maps.gstatic.com/mapfiles/place_api/icons/shopping-71.png","google_place_url":"https://plus.google.com/105844947593470911069/about?hl=en-US"},{"business_name":"Mid State Manufacturing Co. Electric Equipment","category":"Commercial, Industrial, Technology & Building Supplies","category_yelp":"homeandgarden","address":"1015 5th Street North","city":"Minneapolis","state":"Minnesota","zip":"55413","phone":"612.522.3631","geo_longitude":"-93.2602216","geo_latitude":"44.9987744","geo_accuracy":"house","website":"mid-statemfg.com","website_status":"mid-statemfg.com","status":"valid","business_status_determined_by":"Website","yelp_status":"no_match","full_address":"1015 5th Street Northeast, Minneapolis, MN 55413, USA","neighborhood":"Northeast Minneapolis","google_place_id":"99f4462ee151139f76804034bc3648667fb64a24","google_place_img":"http://maps.gstatic.com/mapfiles/place_api/icons/generic_business-71.png","google_place_url":"https://plus.google.com/100266149279362914018/about?hl=en-US"},{"business_name":"Ambassador Press Inc.","category":"Commercial, Industrial, Technology & Building Supplies","category_yelp":"marketing","address":"1400 Washington Ave N","city":"Minneapolis","state":"Minnesota","zip":"55411","phone":"612.521.0123","geo_longitude":"-93.2812525","geo_latitude":"44.9933091","geo_accuracy":"house","website":"ambpress.com","website_status":"ambpress.com","status":"valid","business_status_determined_by":"Website","yelp_status":"no_results","yelp_lat":"44.9933326136485","yelp_long":"-93.2812213897705","full_address":"1400 Washington Avenue North, Minneapolis, MN 55411, USA","neighborhood":"Near North","google_place_id":"8cb3002991bb7bbd8c252166b4f03a14c8585fcf","google_place_img":"http://maps.gstatic.com/mapfiles/place_api/icons/generic_business-71.png","google_place_url":"https://plus.google.com/111965400510790875172/about?hl=en-US"},{"business_name":"Barnett (plumbing)","category":"Commercial, Industrial, Technology & Building Supplies","category_yelp":"plumbing","address":"1427 Washington Ave N","city":"Minneapolis","state":"Minnesota","zip":"55411","phone":"612.284.5806","geo_longitude":"-93.2817164","geo_latitude":"44.993853","geo_accuracy":"house","website_status":"no_website","status":"valid","business_status_determined_by":"Call","yelp_status":"no_results","yelp_lat":"44.9938788977537","yelp_long":"-93.2817363739014","full_address":"1427 North Washington Avenue, Minneapolis, MN 55411, USA","neighborhood":"Near North","google_place_id":"eedc9d1ed692000978cdc7a04f5114208a036157","google_place_img":"http://maps.gstatic.com/mapfiles/place_api/icons/repair-71.png","google_place_url":"https://plus.google.com/104913652094905195657/about?hl=en-US"},{"business_name":"Baldwin Supply Co.","category":"Commercial, Industrial, Technology & Building Supplies","category_yelp":"industry","address":"2306 Washington Ave N","city":"Minneapolis","state":"Minnesota","zip":"55411","phone":"612.338.6911","geo_longitude":"-93.2815781","geo_latitude":"45.0029641","geo_accuracy":"house","website":"baldwinsupply.com","website_status":"baldwinsupply.com","status":"valid","business_status_determined_by":"Website","yelp_status":"no_results","yelp_lat":"45.002982866202","yelp_long":"-93.2815647125244","full_address":"2306 Washington Avenue North, Minneapolis, MN 55411, USA","neighborhood":"Hawthorne","google_place_id":"bc1d74e9723f5c791b38dc008043f230c65f0b3a","google_place_img":"http://maps.gstatic.com/mapfiles/place_api/icons/generic_business-71.png","google_place_url":"https://plus.google.com/114855951473111467133/about?hl=en-US"},{"business_name":"Air Power Equipment","category":"Commercial, Industrial, Technology & Building Supplies","category_yelp":"industry","address":"2400 Washington Ave N","city":"Minneapolis","state":"Minnesota","zip":"55411","phone":"612.522.7000","geo_longitude":"-93.2817805","geo_latitude":"45.0036994","geo_accuracy":"house","website_status":"no_website","status":"valid","business_status_determined_by":"Call","yelp_status":"no_match","full_address":"2400 North Washington Avenue, Minneapolis, MN 55411, USA","neighborhood":"Hawthorne","google_place_id":"c432f3c85dfdeab2e18d2c0a96ddf06942adc722","google_place_img":"http://maps.gstatic.com/mapfiles/place_api/icons/generic_business-71.png","google_place_url":"https://plus.google.com/112447632156195755409/about?hl=en-US"},{"business_name":"Tschida Printing","category":"Commercial, Industrial, Technology & Building Supplies","category_yelp":"marketing","address":"2933 North 2nd Street","city":"Minneapolis","state":"Minnesota","zip":"55411","phone":"612.521.1885","geo_longitude":"-93.2807914","geo_latitude":"45.0105972","geo_accuracy":"house","website":"tschidaprinting.com","website_status":"tschidaprinting.com","status":"valid","business_status_determined_by":"Website","yelp_status":"no_results","yelp_lat":"45.0105684016188","yelp_long":"-93.2807922363281","full_address":"2933 North 2nd Street, Minneapolis, MN 55411, USA","neighborhood":"Hawthorne","google_place_id":"no_match"},{"business_name":"A1 Copier Service","category":"Commercial, Industrial, Technology & Building Supplies","category_yelp":"copyshops","address":"2400 N 2nd St","city":"Minneapolis","state":"Minnesota","zip":"55411","phone":"612.588.9991","geo_longitude":"-93.2789535","geo_latitude":"45.0037418","geo_accuracy":"house","website":"a1copierservice.com","website_status":"a1copierservice.com","status":"valid","business_status_determined_by":"Call","yelp_status":"no_results","yelp_lat":"45.0037111211895","yelp_long":"-93.2789897918701","full_address":"2400 North 2nd Street, Mississippi National River and Recreation Area, Minneapolis, MN 55411, USA","neighborhood":"Hawthorne","google_place_id":"397add168ec6a7c118483061dc6fd15440c4379b","google_place_img":"https://lh4.googleusercontent.com/-rI97uiup8lo/UMvC-UZ7ErI/AAAAAABw8xA/M9onSIRhfCg/s1600-w250/A1%2BCopier%2BService","google_place_url":"https://plus.google.com/102121488126942534409/about?hl=en-US"},{"business_name":"CNC Routerworks Inc.","category":"Commercial, Industrial, Technology & Building Supplies","category_yelp":"itservices","address":"2518 N 2nd St","city":"Minneapolis","state":"Minnesota","zip":"55411","phone":"612.378.7877","geo_longitude":"-93.279271","geo_latitude":"45.005412","geo_accuracy":"house","website":"cncrouterworks.com","website_status":"cncrouterworks.com","status":"valid","business_status_determined_by":"Website","yelp_status":"no_results","yelp_lat":"45.0054103468256","yelp_long":"-93.2792472839356","full_address":"2518 North 2nd Street, Mississippi National River and Recreation Area, Minneapolis, MN 55411, USA","neighborhood":"Hawthorne","google_place_id":"93b64d37593d1b9aef6ffbeab30c4b622b78d8b3","google_place_img":"http://maps.gstatic.com/mapfiles/place_api/icons/generic_business-71.png","google_place_url":"https://plus.google.com/113918142630900663061/about?hl=en-US"},{"business_name":"Shafer & Feld Inc.","category":"Commercial, Industrial, Technology & Building Supplies","category_yelp":"copyshops","address":"2933 N 2nd St","city":"Minneapolis","state":"Minnesota","zip":"55411","phone":"612.521.2286","geo_longitude":"-93.2807914","geo_latitude":"45.0105972","geo_accuracy":"house","website":"shaferandfeld.com","website_status":"shaferandfeld.com","status":"valid","business_status_determined_by":"Website","yelp_status":"no_results","yelp_lat":"45.0105684016188","yelp_long":"-93.2807922363281","full_address":"2933 North 2nd Street, Minneapolis, MN 55411, USA","neighborhood":"Hawthorne","google_place_id":"f471289bf7116f027c550182e7bec839f1348d97","google_place_img":"http://maps.gstatic.com/mapfiles/place_api/icons/generic_business-71.png","google_place_url":"https://plus.google.com/113786097843465365547/about?hl=en-US"},{"business_name":"Paper Equipment & Machinery","category":"Commercial, Industrial, Technology & Building Supplies","category_yelp":"industry","address":"2600 N 2nd St","city":"Minneapolis","state":"Minnesota","zip":"55411","phone":"612.341.1110","geo_longitude":"-93.279469","geo_latitude":"45.006588","geo_accuracy":"house","website":"paperequipment.com","website_status":"paperequipment.com","status":"valid","yelp_status":"no_match","full_address":"2600 North 2nd Street, Mississippi National River and Recreation Area, Minneapolis, MN 55411, USA","neighborhood":"Hawthorne","google_place_id":"no_match"},{"business_name":"E-Tech Inc.","category":"Commercial, Industrial, Technology & Building Supplies","category_yelp":"industry","address":"1401 W River Rd","city":"Minneapolis","state":"Minnesota","zip":"55411","phone":"612.722.1366","geo_longitude":"-93.277146","geo_latitude":"44.9935959","geo_accuracy":"house","website":"etechsystems.com","website_status":"etechsystems.com","status":"valid","business_status_determined_by":"Website","contact_email":"tschult@etechsystems.com","yelp_status":"no_match","full_address":"1401 West River Road North, Mississippi National River and Recreation Area, Minneapolis, MN 55411, USA","neighborhood":"Near North","google_place_id":"6bc4ababd130ebd52b6ee440929554d34985b835","google_place_img":"http://maps.gstatic.com/mapfiles/place_api/icons/generic_business-71.png","google_place_url":"https://plus.google.com/116745502323401232194/about?hl=en-US"},{"business_name":"Global Surplus Machinery","category":"Commercial, Industrial, Technology & Building Supplies","category_yelp":"industry","address":"1729 2nd St N","city":"Minneapolis","state":"Minnesota","zip":"55413","phone":"612.302.9469","geo_longitude":"-93.2661629","geo_latitude":"45.0057898","geo_accuracy":"house","website_status":"no_website","status":"valid","business_status_determined_by":"Call","yelp_status":"no_results","yelp_lat":"44.9742093893291","yelp_long":"-93.2467174530029","full_address":"1729 2nd Street Northeast, Minneapolis, MN 55413, USA","neighborhood":"Northeast Minneapolis","google_place_id":"b497005ef8f554c43ca754054662efbc6e56ef37","google_place_img":"https://lh5.googleusercontent.com/-nmMlKzQwZZ0/T3-51F-ZMOI/AAAAAAAAAAM/vZxxOdM3tfQ/s1600-w400/Global%2BSurplus%2BMachinery","google_place_url":"https://plus.google.com/113915244743064408195/about?hl=en-US"},{"business_name":"Garelick Steel Co.","category":"Commercial, Industrial, Technology & Building Supplies","category_yelp":"industry","address":"1900 2nd St N","city":"Minneapolis","state":"Minnesota","zip":"55418","phone":"612.521.8857","geo_longitude":"-93.2662002","geo_latitude":"45.0074641","geo_accuracy":"house","website":"garelicksteel.com","website_status":"garelicksteel.com","status":"valid","business_status_determined_by":"Website","yelp_status":"no_results","yelp_lat":"44.9742093893291","yelp_long":"-93.2458591461182","full_address":"1900 Northeast 2nd Street, Minneapolis, MN 55418, USA","neighborhood":"Northeast Minneapolis","google_place_id":"1cf0b40e7c4d11b9096eb4d8fa64437748b8b742","google_place_img":"http://maps.gstatic.com/mapfiles/place_api/icons/shopping-71.png","google_place_url":"https://plus.google.com/107004377359259799828/about?hl=en-US"},{"business_name":"Engineering Unlimited Inc.","category":"Commercial, Industrial, Technology & Building Supplies","category_yelp":"hardware","address":"1320 12th Ave N","city":"Minneapolis","state":"Minnesota","zip":"55411","phone":"612.522.4040","geo_longitude":"-93.297511","geo_latitude":"44.991294","geo_accuracy":"house","website":"sterlingpadlocks.com","website_status":"sterlingpadlocks.com","status":"valid","business_status_determined_by":"Call","yelp_status":"no_results","yelp_lat":"44.9912688267006","yelp_long":"-93.297529220581","full_address":"1320 12th Avenue North, Minneapolis, MN 55411, USA","neighborhood":"Near North","google_place_id":"01929fef410575a039871c581412a8fb8e1ecc6e","google_place_img":"http://maps.gstatic.com/mapfiles/place_api/icons/generic_business-71.png","google_place_url":"https://plus.google.com/110075707401233572887/about?hl=en-US"},{"business_name":"Standby Systems Inc.","category":"Commercial, Industrial, Technology & Building Supplies","category_yelp":"industry","address":"1313 Plymouth Ave N","city":"Minneapolis","state":"Minnesota","zip":"55411","phone":"612.721.4473","geo_longitude":"-93.297695","geo_latitude":"44.9917552","geo_accuracy":"house","website":"standby.com","website_status":"standby.com","status":"valid","business_status_determined_by":"Website","yelp_status":"no_results","yelp_lat":"44.9917544303155","yelp_long":"-93.297700881958","full_address":"1313 Plymouth Avenue North, Minneapolis, MN 55411, USA","neighborhood":"Near North","google_place_id":"14e7373d5e3b142f57f16568b917a729abf79d77","google_place_img":"http://maps.gstatic.com/mapfiles/place_api/icons/generic_business-71.png","google_place_url":"https://plus.google.com/100619867586760272808/about?hl=en-US"},{"business_name":"Muscle Bound Bindery","category":"Commercial, Industrial, Technology & Building Supplies","category_yelp":"industry","address":"701 Plymouth Ave N","city":"Minneapolis","state":"Minnesota","zip":"55411","phone":"612.522.4406","geo_longitude":"-93.288589","geo_latitude":"44.991843","geo_accuracy":"house","website":"http://mbbindery.com/","website_status":"http://mbbindery.com/","status":"valid","business_status_determined_by":"Website","yelp_status":"no_results","yelp_lat":"44.991843","yelp_long":"-93.288589","full_address":"701 Plymouth Avenue North, Minneapolis, MN 55411, USA","neighborhood":"Near North","google_place_id":"d07ba077988a0afa01709e88452c2843b823b726","google_place_img":"http://maps.gstatic.com/mapfiles/place_api/icons/generic_business-71.png","google_place_url":"https://plus.google.com/116482057848005513903/about?hl=en-US"},{"business_name":"TLC Precision Wafer Tech Inc.","category":"Commercial, Industrial, Technology & Building Supplies","category_yelp":"industry","address":"1411 W River Rd","city":"Minneapolis","state":"Minnesota","zip":"55411","phone":"612.341.2795","geo_longitude":"-93.277146","geo_latitude":"44.9935959","geo_accuracy":"house","website":"tlcprecision.com","website_status":"tlcprecision.com","status":"valid","business_status_determined_by":"Website","yelp_status":"no_results","yelp_lat":"44.993575407227","yelp_long":"-93.2771873474121","full_address":"1401 West River Road North, Mississippi National River and Recreation Area, Minneapolis, MN 55411, USA","neighborhood":"Near North","google_place_id":"8639edadd8c5a7e02a1791b5a29d230ff1683dbe","google_place_img":"http://maps.gstatic.com/mapfiles/place_api/icons/generic_business-71.png","google_place_url":"https://plus.google.com/107577307144990534981/about?hl=en-US"},{"business_name":"Wharton Hunt Intl.","category":"Commercial, Industrial, Technology & Building Supplies","category_yelp":"furniture","address":"1229 TYLER STREET NE","city":"Minneapolis","state":"Minnesota","zip":"55413","phone":"612.529.0800","geo_longitude":"-93.277146","geo_latitude":"44.9935959","geo_accuracy":"house","website":"whartonhunt.com","website_status":"whartonhunt.com","status":"valid","business_status_determined_by":"website","yelp_status":"no_results","yelp_lat":"44.993575407227","yelp_long":"-93.2771873474121","full_address":"1401 West River Road North, Mississippi National River and Recreation Area, Minneapolis, MN 55411, USA","neighborhood":"Near North","google_place_id":"4c129a9530d26c3abb517a9558a5a62bacc0d764","google_place_img":"https://lh4.googleusercontent.com/-goWkgY4YH0Q/UFvvTzYpYWI/AAAAAABV-ro/EoQRqZGMTck/s1600-w400/Wharton%2BHunt%2BInternational","google_place_url":"https://plus.google.com/114116825880997679773/about?hl=en-US"},{"business_name":"Coloplast","category":"Commercial, Industrial, Technology & Building Supplies","category_yelp":"health","address":"1601 W River Rd","city":"Minneapolis","state":"Minnesota","zip":"55411","phone":"612.337.7800","geo_longitude":"-93.2766712","geo_latitude":"44.9953393","geo_accuracy":"house","website":"coloplast.com","website_status":"coloplast.com","status":"valid","hours_of_operation":"Mon-Fri 8am-5pm","business_status_determined_by":"Website","yelp_status":"no_results","yelp_lat":"44.9953356299095","yelp_long":"-93.2766723632812","full_address":"1601 West River Road North, Mississippi National River and Recreation Area, Minneapolis, MN 55411, USA","neighborhood":"Near North","google_place_id":"fda988c40e23ffa1435a855232eb47f78c77a2a6","google_place_img":"http://maps.gstatic.com/mapfiles/place_api/icons/generic_business-71.png","google_place_url":"https://plus.google.com/107411360081837802419/about?hl=en-US"},{"business_name":"Northern Metal Recycling","category":"Commercial, Industrial, Technology & Building Supplies","category_yelp":"recyclingcenters","address":"1803 N 2nd St","city":"Minneapolis","state":"Minnesota","zip":"55411","phone":"612.521.5558","geo_longitude":"-93.2801674","geo_latitude":"44.9977547","geo_accuracy":"house","website":"www.northernmetalrecycling.com","website_status":"www.northernmetalrecycling.com","status":"valid","business_status_determined_by":"Website","yelp_status":"no_results","yelp_lat":"44.9977634345466","yelp_long":"-93.2801914215088","full_address":"1803 North 2nd Street, Mississippi National River and Recreation Area, Minneapolis, MN 55411, USA","neighborhood":"Near North","google_place_id":"56e9fa9075cc93c8a3a622873d04cfae36dd3f24","google_place_img":"http://maps.gstatic.com/mapfiles/place_api/icons/generic_business-71.png","google_place_url":"https://plus.google.com/117464544461952839896/about?hl=en-US"},{"business_name":"Cemstone Products Co.","category":"Commercial, Industrial, Technology & Building Supplies","category_yelp":"buildingsupplies","address":"65 26th Ave N","city":"Minneapolis","state":"Minnesota","zip":"55411","phone":" 651-688-9520","geo_longitude":"-93.278054","geo_latitude":"45.00443","geo_accuracy":"house","website":"cemstone.com","website_status":"cemstone.com","status":"valid","hours_of_operation":"Mon-Fri 730am-4pm","business_status_determined_by":"Good","yelp_status":"no_results","yelp_lat":"45.00443","yelp_long":"-93.278054","full_address":"65 26th Avenue North, Mississippi National River and Recreation Area, Minneapolis, MN 55411, USA","neighborhood":"Hawthorne","google_place_id":"89ea62d0150bdef7b014925f517034491a29a571","google_place_img":"http://maps.gstatic.com/mapfiles/place_api/icons/generic_business-71.png","google_place_url":"https://plus.google.com/112027419412342817310/about?hl=en-US"},{"business_name":"Craig O'Hern Transfer","category":"Commercial, Industrial, Technology & Building Supplies","category_yelp":"transport","address":"50 31st Ave N","city":"Minneapolis","state":"Minnesota","zip":"55411","phone":"612.331.2709","geo_longitude":"-93.2777289","geo_latitude":"45.012217","geo_accuracy":"house","website_status":"no_website","status":"valid","business_status_determined_by":"Call","yelp_status":"no_results","yelp_lat":"45.012217","yelp_long":"-93.2777289","full_address":"50 31st Avenue North, Mississippi National River and Recreation Area, Minneapolis, MN 55411, USA","neighborhood":"Hawthorne","google_place_id":"3674dad25f3549749fed074c6af02149bf296a89","google_place_img":"http://maps.gstatic.com/mapfiles/place_api/icons/shopping-71.png","google_place_url":"https://plus.google.com/116127434679301585981/about?hl=en-US"},{"business_name":"Interscapes","category":"Commercial, Industrial, Technology & Building Supplies","category_yelp":"industry","address":"220 26th Ave N","city":"Minneapolis","state":"Minnesota","zip":"55418","phone":"612.522.5009","geo_longitude":"-93.2650624","geo_latitude":"45.0149758","geo_accuracy":"house","website":"interscapes.us","website_status":"interscapes.us","status":"valid","business_status_determined_by":"Website","yelp_status":"no_results","yelp_lat":"45.0149758","yelp_long":"-93.2650624","full_address":"220 26th Avenue Northeast, Minneapolis, MN 55418, USA","neighborhood":"Northeast Minneapolis","google_place_id":"854e173932270de1305f35a4e62b21f8a513d44f","google_place_img":"http://maps.gstatic.com/mapfiles/place_api/icons/generic_business-71.png","google_place_url":"https://plus.google.com/114178255807850556051/about?hl=en-US"},{"business_name":"Mobilize Design and Architecture","category":"Commercial, Industrial, Technology & Building Supplies","category_yelp":"architects","address":"1108 W Broadway","city":"Minneapolis","state":"Minnesota","zip":"55411","phone":"612.208.0504","geo_longitude":"-93.2945991","geo_latitude":"44.9992885","geo_accuracy":"house","website":"mobilizedesign.net","website_status":"mobilizedesign.net","status":"valid","business_status_determined_by":"Call","contact_names":"Jamil Ford (jamil@mobilizedesign.net), David Witt (dwitt@mobilizedesign.net","yelp_status":"no_results","yelp_lat":"44.9992807602105","yelp_long":"-93.2946109771728","full_address":"1108 West Broadway Avenue, Minneapolis, MN 55411, USA","neighborhood":"Jordan","google_place_id":"no_match"},{"business_name":"Innovent","category":"Commercial, Industrial, Technology & Building Supplies","category_yelp":"hvac","address":"60 28th Ave N","city":"Minneapolis","state":"Minnesota","zip":"55411","phone":"612.877.4800","geo_longitude":"-93.2780242","geo_latitude":"45.0091886","geo_accuracy":"house","website":"innoventair.com","website_status":"innoventair.com","status":"valid","business_status_determined_by":"Call","yelp_status":"no_match","full_address":"60 28th Avenue North, Mississippi National River and Recreation Area, Minneapolis, MN 55411, USA","neighborhood":"Hawthorne","google_place_id":"bfa1280416acc7c3fe464aa8abfd98942cb8fe82","google_place_img":"http://maps.gstatic.com/mapfiles/place_api/icons/generic_business-71.png","google_place_url":"https://plus.google.com/111676130218061467839/about?hl=en-US"},{"business_name":"Wood Works","category":"Commercial, Industrial, Technology & Building Supplies","category_yelp":"homeservices","address":"251 26th Ave N","city":"Minneapolis","state":"Minnesota","zip":"55418","phone":"612.522.9500","geo_longitude":"-93.2655376","geo_latitude":"45.0149469","geo_accuracy":"house","website":"woodworkscabinetry.com","website_status":"woodworkscabinetry.com","status":"valid","business_status_determined_by":"Website","yelp_status":"no_match","full_address":"251 26th Avenue Northeast, Minneapolis, MN 55418, USA","neighborhood":"Northeast Minneapolis","google_place_id":"91f6fc2a6d9331940667ef5f7a55bf7608fcd667","google_place_img":"http://maps.gstatic.com/mapfiles/place_api/icons/generic_business-71.png","google_place_url":"https://plus.google.com/100449988147189963810/about?hl=en-US"},{"business_name":"Commercial Floors","category":"Commercial, Industrial, Technology & Building Supplies","category_yelp":"flooring","address":"1815 W River Rd","city":"Minneapolis","state":"Minnesota","zip":"55411","phone":"612.287.1777","geo_longitude":"-93.2776084","geo_latitude":"44.9982088","geo_accuracy":"house","website_status":"no_website","status":"valid","business_status_determined_by":"Call","yelp_status":"no_match","full_address":"1815 West River Road North, Mississippi National River and Recreation Area, Minneapolis, MN 55411, USA","neighborhood":"Near North","google_place_id":"279332a890eb170a09631150a9162843159d7646","google_place_img":"https://lh3.ggpht.com/-3GyKQERPV-k/T3zEHAq63XI/AAAAAAAA_vM/6DOkBREIeFA/s1600-w400/Absolute+Commercial+Flooring","google_place_url":"https://plus.google.com/111592545273364474525/about?hl=en-US"},{"business_name":"Habitat General Contracting","category":"Commercial, Industrial, Technology & Building Supplies","category_yelp":"contractors","address":"1313 Plymouth Ave N","city":"Minneapolis","state":"Minnesota","zip":"55411","phone":"612.724.5241","geo_longitude":"-93.297695","geo_latitude":"44.9917552","geo_accuracy":"house","website_status":"no_website","status":"valid","business_status_determined_by":"Call","yelp_status":"no_match","full_address":"1313 Plymouth Avenue North, Minneapolis, MN 55411, USA","neighborhood":"Near North","google_place_id":"ba1cef8eadbaff6e1d7073db0e9481073cc9a3ce","google_place_img":"http://maps.gstatic.com/mapfiles/place_api/icons/generic_business-71.png","google_place_url":"https://plus.google.com/112640000757008253356/about?hl=en-US"},